[
		{ 
			"station": "Universitätsmedizin Rostock",
			"abteilung": "",
			"strasse": "Schillingallee",
			"hausnr": "35",
			"plz": "18057",
			"stadt": "Rostock",
			"tel": "+49 381 494-0",
			"fax": "",
			"web": "http://www.med.uni-rostock.de/index.php?id=273",
			"mail": "",
			"lat": "54.08390499999999",
			"lng": "12.099596900000051",
			"art": "Überregionales Traumazentrum"
		},
		{ 
			"station": "Universitätsmedizin Greifswald - KdöR",
			"abteilung": "",
			"strasse": "Fleischmannstraße",
			"hausnr": "8",
			"plz": "17475",
			"stadt": "Greifswald",
			"tel": "+49 3834 86-0",
			"fax": "+49 3834 86-5101",
			"web": "http://www.medizin.uni-greifswald.de/index.php?id=22",
			"mail": "",
			"lat": "54.0888025",
			"lng": "13.40232709999998",
			"art": "Überregionales Traumazentrum"
		},
		{ 
			"station": "HELIOS Kliniken Schwerin",
			"abteilung": "",
			"strasse": "Wismarsche Straße",
			"hausnr": "393-397",
			"plz": "19049",
			"stadt": "Schwerin",
			"tel": "+49 385 520-0",
			"fax": "+49 385 520-0",
			"web": "http://www.helios-kliniken.de/index.php?id=3524",
			"mail": "",
			"lat": "53.65367",
			"lng": "11.41192000000001",
			"art": "Überregionales Traumazentrum"
		},
		{ 
			"station": "Universitätsklinikum Schleswig-Holstein, Campus Lübeck",
			"abteilung": "",
			"strasse": "Ratzeburger Allee",
			"hausnr": "160",
			"plz": "23562",
			"stadt": "Lübeck",
			"tel": "+49 451 500-0",
			"fax": "+49 451 500-3060",
			"web": "http://www.uk-s-h.de",
			"mail": "info@uk-sh.de",
			"lat": "53.83339729999999",
			"lng": "10.703516000000036",
			"art": "Überregionales Traumazentrum"
		},
		{ 
			"station": "Universitätsklinikum Schleswig-Holstein, Campus Kiel",
			"abteilung": "",
			"strasse": "Arnold-Heller-straße",
			"hausnr": "3",
			"plz": "24105",
			"stadt": "Kiel",
			"tel": "+49 431 597-0",
			"fax": "+49 431 597-1178",
			"web": "http://www.uk-s-h.de",
			"mail": "info@uksh.de",
			"lat": "54.32954160000001",
			"lng": "10.139763300000027",
			"art": "Überregionales Traumazentrum"
		},
		{ 
			"station": "Sana Hanse-Klinikum Wismar",
			"abteilung": "",
			"strasse": "Störtebekerstraße",
			"hausnr": "6",
			"plz": "23966",
			"stadt": "Wismar",
			"tel": "+49 3841 33-0",
			"fax": "",
			"web": "http://www.damp.de/einrichtungen/hanse-klinikum-wismar.html",
			"mail": "wismar@sana.de",
			"lat": "53.8841547",
			"lng": "11.43599919999997",
			"art": "regionales Traumazentrum"
		},		
		{ 
			"station": "Klinikum Südstadt Rostock",
			"abteilung": "",
			"strasse": "Südring",
			"hausnr": "81",
			"plz": "18059",
			"stadt": "Rostock",
			"tel": "+49 381 4401-0",
			"fax": "+49 381 4401-7799",
			"web": "http://www.kliniksued-rostock.de",
			"mail": "",
			"lat": "54.0726943",
			"lng": "12.107299900000044",
			"art": "regionales Traumazentrum"
		},		
		{ 
			"station": "KMG Klinikum Güstrow GmbH",
			"abteilung": "",
			"strasse": "Friedrich-Trendelenburg-Allee",
			"hausnr": "1",
			"plz": "18273",
			"stadt": "Güstrow",
			"tel": "+49 3843 34-0",
			"fax": "+49 3843 34-3360",
			"web": "http://www.kmg-kliniken.de/index.php?option=com_content&view=article&id=20&Itemid=53",
			"mail": "guestrow@kmg-kliniken.de",
			"lat": "53.8110325",
			"lng": "12.200421499999948",
			"art": "regionales Traumazentrum"
		},		
		{
			"station": "HELIOS Hanseklinikum Stralsund",
			"abteilung": "",
			"strasse": "Große Parower Straße",
			"hausnr": "47-53",
			"plz": "18435",
			"stadt": "Stralsund",
			"tel": "+49 3831 35-0",
			"fax": "+49 3831 35-2005",
			"web": "http://www.helios-kliniken.de/klinik/stralsund.html",
			"mail": "",
			"lat": "54.32895",
			"lng": "13.080760000000055",
			"art": "regionales Traumazentrum"
		},		
		{ 
			"station": "Dietrich-Bonhoeffer-Klinikum Neubrandenburg",
			"abteilung": "",
			"strasse": "Allendestraße",
			"hausnr": "30",
			"plz": "17036",
			"stadt": "Neubrandenburg",
			"tel": "+49 395 775-0",
			"fax": "",
			"web": "http://dbknb.de/",
			"mail": "",
			"lat": "53.5447819",
			"lng": "13.294183900000007",
			"art": "regionales Traumazentrum"
		},		
		{
			"station": "Asklepios Klinikum Uckermark",
			"abteilung": "",
			"strasse": "Auguststraße",
			"hausnr": "23",
			"plz": "16303",
			"stadt": "Schwedt",
			"tel": "+49 3332 53-0",
			"fax": "+49 3332 53-2410",
			"web": "http://www.asklepios.com/klinik/default.aspx?cid=716&pc=0309",
			"mail": "info.schwedt@asklepios.com",
			"lat": "53.05319",
			"lng": "14.276409999999942",
			"art": "regionales Traumazentrum"
		},
		{ 
			"station": "Klinikum Barnim GmbH, Werner-Forßmann-Krankenhaus",
			"abteilung": "",
			"strasse": "Rudolph-Breitscheid Straße",
			"hausnr": "100",
			"plz": "16225",
			"stadt": "Eberswalde",
			"tel": "+49 3334 69-0",
			"fax": "+49 3334 23121",
			"web": "http://www.klinikum-barnim.de",
			"mail": "info@klinikum-barnim.de",
			"lat": "52.8275964",
			"lng": "13.790795900000035",
			"art": "regionales Traumazentrum"
		},		
		{ 
			"station": "Universitätsklinik Greifswald",
			"abteilung": "Klinik und Poliklinik für Innere Medizin B",
			"strasse": "Friedrich-Loeffler-straße",
			"hausnr": "23a",
			"plz": "17487",
			"stadt": "Greifswald",
			"tel": "03834 86-0",
			"fax": "03834 86-6657",
			"web": "http://www.uni-greifswald.de",
			"mail": "",
			"lat": "54.09767",
			"lng": "13.37593000000004",
			"art": "PTCA"
		},
		{ 
			"station": "Klinikum Karlsburg",
			"abteilung": "Klinik Für Kardiologie",
			"strasse": "Greifswalder Straße",
			"hausnr": "11",
			"plz": "17495",
			"stadt": "Karlsburg",
			"tel": "038355 70-1283",
			"fax": "038355 70-1655",
			"web": "http://www.drguth.de",
			"mail": "",
			"lat": "53.97187599999999",
			"lng": "13.611620700000003",
			"art": "PTCA"
		},
		{ 
			"station": "Klinikum Neubrandenburg",
			"abteilung": "Klinik für Innere Medizin III",
			"strasse": "Allendestraße",
			"hausnr": "30",
			"plz": "17036",
			"stadt": "Neubrandenburg",
			"tel": "0395 775-3651",
			"fax": "0395 775-3653",
			"web": "http://www.klinikum-nb.de",
			"mail": "",
			"lat": "53.5447819",
			"lng": "13.294183900000007",
			"art": "PTCA"
		},			 		
		{ 
			"station": "Universität Rostock",
			"abteilung": "Abteilung für Kardiologie",
			"strasse": "Ernst-Heydemann-Straße",
			"hausnr": "6",
			"plz": "18057",
			"stadt": "Rostock",
			"tel": "0381 494-7700",
			"fax": "0381 494-7702",
			"web": "http://www.uni-rostock.de",
			"mail": "",
			"lat": "54.0823474",
			"lng": "12.105074899999977",
			"art": "PTCA"
		},	
		{ 
			"station": "Medizinisches Zentrum der Landeshauptstadt Schwerin",
			"abteilung": "Abt. Kardiologie",
			"strasse": "Wismarsche Straße",
			"hausnr": "397",
			"plz": "19049",
			"stadt": "Schwerin",
			"tel": "0385 520-2550",
			"fax": "0385 520-2608",
			"web": "http://www.klinikum-sn.de",
			"mail": "",
			"lat": "53.65367",
			"lng": "11.41192000000001",
			"art": "PTCA"
		},
		{ 
			"station": "Klinikum der Hansestadt Stralsund",
			"abteilung": "",
			"strasse": "Große Parower Straße",
			"hausnr": "47-53",
			"plz": "18435",
			"stadt": "Stralsund",
			"tel": "03831 35-2700",
			"fax": "03831 35-2705",
			"web": "http://www.klinikum-stralsund.de",
			"mail": "",
			"lat": "54.32895",
			"lng": "13.080760000000055",
			"art": "PTCA"
		},
		{ 
			"station": "KMG Klinikum Güstrow",
			"abteilung": "Klinik für Innere Medizin I",
			"strasse": "Friedrich-Trendelenburg-Allee",
			"hausnr": "1",
			"plz": "18273",
			"stadt": "Güstrow",
			"tel": "03843 / 34-0",
			"fax": "03843 / 34 33 60",
			"web": "",
			"mail": "",
			"lat": "53.8110325",
			"lng": "12.200421499999948",
			"art": "PTCA"
		},
		{ 
			"station": "Herz-Kreislauf-Klinik Bevensen AG",
			"abteilung": "",
			"strasse": "Römstedter Straße",
			"hausnr": "25",
			"plz": "29549",
			"stadt": "Bad Bevensen",
			"tel": "05821 82-1703",
			"fax": "05821 82-1777",
			"web": "http://www.herz-kreislauf-klinik-bevensen.de",
			"mail": "",
			"lat": "53.0855833",
			"lng": "10.60359840000001",
			"art": "PTCA"
		},
		{ 
			"station": "Deutsches Herzzentrum Berlin",
			"abteilung": "Innere Medizin - Kardiologie",
			"strasse": "Augustenburger Platz",
			"hausnr": "1",
			"plz": "13353",
			"stadt": "Berlin",
			"tel": "030 4593-2400(01)",
			"fax": "030 4593-2500",
			"web": "http://www.dhzb.de",
			"mail": "",
			"lat": "52.5424137",
			"lng": "13.348643400000014",
			"art": "PTCA"
		},
		{ 
			"station": "DRK-Kliniken Westend",
			"abteilung": "CA-Medizinische Klinik II",
			"strasse": "Spandauer Damm",
			"hausnr": "130",
			"plz": "14050",
			"stadt": "Berlin",
			"tel": "030 3035-4305",
			"fax": "030 3035-4309",
			"web": "http://www.drk-kliniken-berlin.de/westend",
			"mail": "",
			"lat": "52.51861",
			"lng": "13.27976000000001",
			"art": "PTCA"
		},
		{ 
			"station": "DRK Kliniken Köpenick",
			"abteilung": "I. Medizinische Klinik",
			"strasse": "Salvador-Allende-Straße",
			"hausnr": "2-8",
			"plz": "12559",
			"stadt": "Berlin",
			"tel": "030 3035-3318",
			"fax": "030 3035-3321",
			"web": "http://www.drk-kliniken-berlin.de/koepenick",
			"mail": "",
			"lat": "52.4400937",
			"lng": "13.596712799999978",
			"art": "PTCA"
		},
		{ 
			"station": "Universitäts-Klinikum Benjamin Franklin",
			"abteilung": "Medizinische Klinik II",
			"strasse": "Hindenburgdamm",
			"hausnr": "30",
			"plz": "12200",
			"stadt": "Berlin",
			"tel": "030 8445-2343(44)",
			"fax": "030 8445-3565",
			"web": "http://www.medizin.fu-berlin.de",
			"mail": "",
			"lat": "52.44134099999999",
			"lng": "13.317014900000004",
			"art": "PTCA"
		},		
		{ 
			"station": "Gemeinschaftskrankenhaus Havelhöhe",
			"abteilung": "Medizinische Klinik (Schwerpunkt Kardiologie/Pneumologie)",
			"strasse": "Kladower Damm",
			"hausnr": "221",
			"plz": "14089",
			"stadt": "Berlin",
			"tel": "030 36501-280(281)",
			"fax": "030 36501-204",
			"web": "http://www.havelhoehe.de",
			"mail": "",
			"lat": "52.46338",
			"lng": "13.164189999999962",
			"art": "PTCA"
		},
		{ 
			"station": "Jüdisches Krankenhaus Berlin",
			"abteilung": "Innere Abteilung / Kardiologie",
			"strasse": "Heinz-Galinski-Straße",
			"hausnr": "1",
			"plz": "13347",
			"stadt": "Berlin",
			"tel": "030 4994-2391(2295)",
			"fax": "030 4994-2514",
			"web": "",
			"mail": "",
			"lat": "52.55567",
			"lng": "13.369550000000004",
			"art": "PTCA"
		},
		{ 
			"station": "Unfallkrankenhaus Berlin",
			"abteilung": "Klinik Für Innere Medizin",
			"strasse": "Warener Straße",
			"hausnr": "7",
			"plz": "12689",
			"stadt": "Berlin",
			"tel": "030 5681-0",
			"fax": "030 5681-3603",
			"web": "http://www.ukb.de",
			"mail": "",
			"lat": "52.5188768",
			"lng": "13.565004199999976",
			"art": "PTCA"
		},
		{ 
			"station": "Auguste Viktoria-Klinikum",
			"abteilung": "Innere Medizin I/Kardiologie",
			"strasse": "Rubensstraße",
			"hausnr": "125",
			"plz": "12157",
			"stadt": "Berlin",
			"tel": "030 7561 2292",
			"fax": "030 7561 2252",
			"web": "http://www.vivantes.de",
			"mail": "",
			"lat": "52.46035999999999",
			"lng": "13.34680000000003",
			"art": "PTCA"
		},
		{ 
			"station": "Vivantes-Humboldt-Klinikum",
			"abteilung": "Klinik für Innere Medizin- Kardiologie und konservative Intensivmedizin",
			"strasse": "Am Nordgraben",
			"hausnr": "2",
			"plz": "13509",
			"stadt": "Berlin",
			"tel": "030 4194-1001",
			"fax": "030 4194-2431",
			"web": "http://www.vivantes.de",
			"mail": "",
			"lat": "52.5898",
			"lng": "13.309369999999944",
			"art": "PTCA"
		},
		{ 
			"station": "Vivantes Klinikum Am Urban",
			"abteilung": "Klinik für Innere Medizin - Kardiologie und konservative Intensivmedizin",
			"strasse": "Dieffenbachstraße",
			"hausnr": "1",
			"plz": "10967",
			"stadt": "Berlin",
			"tel": "030 69725-100",
			"fax": "030 69725-104",
			"web": "http://www.urban-berlin.de",
			"mail": "",
			"lat": "52.4952712",
			"lng": "13.409307000000013",
			"art": "PTCA"
		},
		{ 
			"station": "Krankenhaus Neukölln",
			"abteilung": "Innere Medizin I",
			"strasse": "Rudower Straße",
			"hausnr": "",
			"plz": "12351",
			"stadt": "Berlin",
			"tel": "030 6004 2211",
			"fax": "",
			"web": "http://www.vivantes.de/de/ein/knk/neu/index_knk.htm",
			"mail": "",
			"lat": "52.4326502",
			"lng": "13.444353399999954",
			"art": "PTCA"
		},
		{ 
			"station": "Campus-Vichow-Klinikum",
			"abteilung": "Medizinische Klinik mit Schwerpunkt Kardiologie",
			"strasse": "Augustenburger Platz 1",
			"hausnr": "",
			"plz": "13353",
			"stadt": "Berlin",
			"tel": "030 450-553752",
			"fax": "030 450-553949",
			"web": "http://www.charite/kardiologie",
			"mail": "",
			"lat": "52.5424137",
			"lng": "13.348643400000014",
			"art": "PTCA"
		},
		{ 
			"station": "Helios Klinikum Berlin",
			"abteilung": "Franz Volhard Klinik",
			"strasse": "Wiltbergstraße",
			"hausnr": "50",
			"plz": "13125",
			"stadt": "Berlin",
			"tel": "030 9417-2398",
			"fax": "030 9417-2540",
			"web": "http://www.helios-kliniken.de/berlin",
			"mail": "",
			"lat": "52.6385588",
			"lng": "13.490436199999976",
			"art": "PTCA"
		},
		{ 
			"station": "Vivantes Klinikum Spandau",
			"abteilung": "Klinik für Innere Medizin",
			"strasse": "Neue Bergstraße",
			"hausnr": "6",
			"plz": "13585",
			"stadt": "Berlin",
			"tel": "030 3387-2650",
			"fax": "030 3387-2654",
			"web": "http://www.vivantes.de",
			"mail": "",
			"lat": "52.55012",
			"lng": "13.20781999999997",
			"art": "PTCA"
		},
		{ 
			"station": "Maria Heimsuchung Caritas-Klinik Pankow",
			"abteilung": "Innere Medizin - Kardiologie",
			"strasse": "Breite Straße",
			"hausnr": "46/47",
			"plz": "13187",
			"stadt": "Berlin",
			"tel": "030/47517321",
			"fax": "030/47517323",
			"web": "www.caritas-klinik-pankow.de",
			"mail": "",
			"lat": "52.57113529999999",
			"lng": "13.41453869999998",
			"art": "PTCA"
		},
		{ 
			"station": "Klinikum Barnim GmbH, Werner Forßmann Krankenhaus",
			"abteilung": "Medizinische Klinik III",
			"strasse": "Rudolf-Breitscheid-Straße",
			"hausnr": "100",
			"plz": "16225",
			"stadt": "Eberswalde",
			"tel": "03334 69-0",
			"fax": "03334 69-2326",
			"web": "http://www.wfk-ew.de",
			"mail": "",
			"lat": "52.8275964",
			"lng": "13.790795900000035",
			"art": "PTCA"
		},
		{ 
			"station": "Städtisches Klinikum Brandenburg GmbH",
			"abteilung": "Klinik für Innere Medizin I Kardiologie, Pulmologie, Angiologie",
			"strasse": "Hochstraße",
			"hausnr": "29",
			"plz": "14770",
			"stadt": "Brandenburg an der Havel",
			"tel": "03381 41-1500",
			"fax": "03381 41-1509",
			"web": "http://www.klinikum-brandenburg.de",
			"mail": "",
			"lat": "52.41288",
			"lng": "12.547770000000014",
			"art": "PTCA"
		},
		{ 
			"station": "Ruppiner Kliniken",
			"abteilung": "Med. Klinik A (Schwerpunkt Kardiologie und Pneumologie)",
			"strasse": "Fehrbelliner Straße",
			"hausnr": "38",
			"plz": "16816",
			"stadt": "Neruppin",
			"tel": "03391 3931-10",
			"fax": "03391 3931-09",
			"web": "http://www.ruppiner-kliniken.de",
			"mail": "",
			"lat": "52.90634000000001",
			"lng": "12.797360000000026",
			"art": "PTCA"
		},
		{ 
			"station": "Klinik Ernst von Bergmann",
			"abteilung": ".",
			"strasse": "Charlottenstr",
			"hausnr": "72",
			"plz": "14467",
			"stadt": "Potsdam",
			"tel": "0331 241-0",
			"fax": "0331 241-9890",
			"web": "",
			"mail": "",
			"lat": "52.40046",
			"lng": "13.065060000000017",
			"art": "PTCA"
		},
		{ 
			"station": "St. Josefs-Krankenhaus Potsdam-Sanssouci",
			"abteilung": "",
			"strasse": "Allee nach Sanssouci",
			"hausnr": "7",
			"plz": "14471",
			"stadt": "Potsdam",
			"tel": "0331 9682-320",
			"fax": "0331 9682-321",
			"web": "http://www.alexius.de",
			"mail": "",
			"lat": "52.3996716",
			"lng": "13.044173199999932",
			"art": "PTCA"
		},
		{ 
			"station": "Allgemeines Krankenhaus Altona",
			"abteilung": "III. Medizinische Abteilung Kardiologie",
			"strasse": "Paul-Ehrlich-Straße",
			"hausnr": "1",
			"plz": "22763",
			"stadt": "Hamburg",
			"tel": "040 8822-1220(1)",
			"fax": "040 8822-4905",
			"web": "http://www.ak-altona.lbk-hh.de",
			"mail": "",
			"lat": "53.55412",
			"lng": "9.90264000000002",
			"art": "PTCA"
		},
		{ 
			"station": "Allgemeines Krankenhaus Harburg",
			"abteilung": "I. Medizinische Abteilung",
			"strasse": "Eissendorfer Pferdeweg",
			"hausnr": "52",
			"plz": "21075",
			"stadt": "Hamburg",
			"tel": "",
			"fax": "",
			"web": "http://www.lbk-hh.de",
			"mail": "",
			"lat": "53.46111",
			"lng": "9.950129999999945",
			"art": "PTCA"
		},
		{ 
			"station": "Universitätsklinikum Hamburg-Eppendorf",
			"abteilung": "Klinik und Poliklinik für Innere Medizin",
			"strasse": "Martinistraße",
			"hausnr": "52",
			"plz": "20246",
			"stadt": "Hamburg",
			"tel": "040 42803-3972",
			"fax": "040 42803-2822",
			"web": "http://www.uke.uni-hamburg.de",
			"mail": "",
			"lat": "53.590047",
			"lng": "9.97858999999994",
			"art": "PTCA"
		},
		{ 
			"station": "Marienkrankenhaus Hamburg",
			"abteilung": "Zentrum Innere Medizin",
			"strasse": "Alfredstraße",
			"hausnr": "9",
			"plz": "22087",
			"stadt": "Hamburg",
			"tel": "040 2546 1001",
			"fax": "",
			"web": "http://www.marienkrankenhaus.org",
			"mail": "",
			"lat": "53.5576985",
			"lng": "10.032223499999986",
			"art": "PTCA"
		},
		{ 
			"station": "Asklepios Klinik Barmbek",
			"abteilung": "I. Medizinische Abteilung",
			"strasse": "Rübenkamp",
			"hausnr": "220",
			"plz": "22391",
			"stadt": "Hamburg",
			"tel": "040 - 181882-4811",
			"fax": "040 - 181882-4819",
			"web": "http://www.asklepios.com/barmbek/html/fachabt/med1/index.asp",
			"mail": "",
			"lat": "53.60726",
			"lng": "10.034539999999993",
			"art": "PTCA"
		},
				{ 
			"station": "Städtisches Klinikum Lüneburg gGmbH",
			"abteilung": "Kardiologische Klinik im Herzzentrum Lüneburg-Bad Bevensen",
			"strasse": "Bögelstraße",
			"hausnr": "1",
			"plz": "21339",
			"stadt": "Lüneburg",
			"tel": "04131 77 34 00",
			"fax": "04131 77 34 09",
			"web": "",
			"mail": "",
			"lat": "53.24041",
			"lng": "10.39548000000002",
			"art": "PTCA"
		},
		{ 
			"station": "Universitätsklinikum Magdeburg",
			"abteilung": "Klinik für Kardiologie, Angiologie und Pneumologie",
			"strasse": "Leipzigerstraße",
			"hausnr": "44",
			"plz": "39120",
			"stadt": "Magdeburg",
			"tel": "0391 671-3203",
			"fax": "0391 671-3202",
			"web": "http://www.med.uni-magdeburg.de/stdhome/kkap.shtml",
			"mail": "",
			"lat": "52.0584301",
			"lng": "11.613268800000014",
			"art": "PTCA"
		},
		{ 
			"station": "Pfeiffersche Stiftungen - Klinik für innere Medizin",
			"abteilung": "FA für Innere Medizin / Kardiologie",
			"strasse": "Pfeifferstraße",
			"hausnr": "10",
			"plz": "39114",
			"stadt": "Magdeburg",
			"tel": "+ 49 391 8505 314",
			"fax": "+ 49 391 8505 500",
			"web": "http://www.pfeiffersche-stiftungen.de",
			"mail": "",
			"lat": "52.11621",
			"lng": "11.664660000000026",
			"art": "PTCA"
		},
		{ 
			"station": "Johanniter-Krankenhaus der Altmarkt in Stendal gGmbH",
			"abteilung": "Med. Klinik II",
			"strasse": "Wendstraße",
			"hausnr": "31",
			"plz": "39576",
			"stadt": "Stendal",
			"tel": "03931 66-1250",
			"fax": "03931 551252",
			"web": "http://www.johanniter-stendal.de",
			"mail": "",
			"lat": "52.61096",
			"lng": "11.854559999999992",
			"art": "PTCA"
		},
		{ 
			"station": "Christoph 48",
			"abteilung": "",
			"strasse": "Penzliner Straße",
			"hausnr": "74",
			"plz": "17235",
			"stadt": "Neustrelitz",
			"tel": "",
			"fax": "",
			"web": "",
			"mail": "",
			"lat": "53.382892",
			"lng": "13.049989",
			"art": "RTH"
		},
		{ 
			"station": "Christoph 47",
			"abteilung": "",
			"strasse": "Karl Lieberknecht Ring",
			"hausnr": "26",
			"plz": "17491",
			"stadt": "Greifswald",
			"tel": "",
			"fax": "",
			"web": "",
			"mail": "",
			"lat": "54.088947",
			"lng": "13.409567",
			"art": "RTH"
		},{ 
			"station": "Christoph 34",
			"abteilung": "",
			"strasse": "Friedrich-Trendelenburg-Allee",
			"hausnr": "1",
			"plz": "18273",
			"stadt": "Güstrow",
			"tel": "",
			"fax": "",
			"web": "",
			"mail": "",
			"lat": "53.8110325",
			"lng": "12.200421499999948",
			"art": "RTH"
		},{ 
			"station": "Christoph 35",
			"abteilung": "",
			"strasse": "Triglafweg",
			"hausnr": "10",
			"plz": "14770",
			"stadt": "Brandenburg an der Havel",
			"tel": "",
			"fax": "",
			"web": "",
			"mail": "",
			"lat": "52.415211",
			"lng": "12.541885",
			"art": "RTH"
		},{ 
			"station": "Christoph 12",
			"abteilung": "",
			"strasse": "Am Hubschrauberlandeplatz",
			"hausnr": "1",
			"plz": "23623",
			"stadt": "Ahrensbök",
			"tel": "",
			"fax": "",
			"web": "",
			"mail": "",
			"lat": "54.035341",
			"lng": "10.563105",
			"art": "RTH"
		},{ 
			"station": "Christoph 19",
			"abteilung": "",
			"strasse": "Hagenskamp",
			"hausnr": "34",
			"plz": "29525",
			"stadt": "Uelzen",
			"tel": "",
			"fax": "",
			"web": "",
			"mail": "",
			"lat": "52.971794",
			"lng": "10.532415",
			"art": "RTH"
		},{ 
			"station": "Christoph 29",
			"abteilung": "",
			"strasse": "Lesserstraße",
			"hausnr": "180",
			"plz": "22049",
			"stadt": "Hamburg",
			"tel": "",
			"fax": "",
			"web": "",
			"mail": "",
			"lat": "53.594021",
			"lng": "10.074740",
			"art": "RTH"
		},{ 
			"station": "Christoph Hansa",
			"abteilung": "",
			"strasse": "Bergedorfer Straße",
			"hausnr": "10",
			"plz": "21033",
			"stadt": "Hamburg",
			"tel": "",
			"fax": "",
			"web": "",
			"mail": "",
			"lat": "53.507300",
			"lng": "10.178471",
			"art": "ITH"
		},{ 
			"station": "Christoph 31",
			"abteilung": "",
			"strasse": "Hindenburgdamm",
			"hausnr": "30",
			"plz": "12203",
			"stadt": "Berlin",
			"tel": "",
			"fax": "",
			"web": "",
			"mail": "",
			"lat": "52.441354",
			"lng": "13.317047",
			"art": "RTH"
		},{ 
			"station": "Christoph 49",
			"abteilung": "",
			"strasse": "Pieskower Straße",
			"hausnr": "33",
			"plz": "15526",
			"stadt": "Bad Saarow",
			"tel": "",
			"fax": "",
			"web": "",
			"mail": "",
			"lat": "52.284295",
			"lng": "14.064447",
			"art": "RTH"
		},{ 
			"station": "Christoph Rostock",
			"abteilung": "",
			"strasse": "Südring",
			"hausnr": "81",
			"plz": "18059",
			"stadt": "Rostock",
			"tel": "",
			"fax": "",
			"web": "",
			"mail": "",
			"lat": "54.0726943",
			"lng": "12.107299900000044",
			"art": "ITH"
		},
		{
			"station": "Rettungswache Greifswald",
			"abteilung": "",
			"strasse": "Gützkower Landstraße",
			"hausnr": "32",
			"plz": "17489",
			"stadt": "Greifswald",
			"tel": "",
			"fax": "",
			"web": "",
			"mail": "",
			"lat": "54.088818",
			"lng": "13.379068",
			"art": "Rettungswache"
		},
		{
			"station": "Rettungswache Greifswald",
			"abteilung": "",
			"strasse": "Wolgaster Straße",
			"hausnr": "62a",
			"plz": "17489",
			"stadt": "Greifswald",
			"tel": "",
			"fax": "",
			"web": "",
			"mail": "",
			"lat": "54.090805",
			"lng": "13.417433",
			"art": "Rettungswache"
		},
		{
			"station": "Rettungswache Neubrandenburg",
			"abteilung": "",
			"strasse": "Ziegelbergstraße",
			"hausnr": "50",
			"plz": "17033",
			"stadt": "Neubrandenburg",
			"tel": "",
			"fax": "",
			"web": "",
			"mail": "",
			"lat": "53.555580",
			"lng": "13.278516",
			"art": "Rettungswache"
		},
		{
			"station": "Rettungswache Neubrandenburg",
			"abteilung": "",
			"strasse": "Robert-Blum-straße",
			"hausnr": "32",
			"plz": "17033",
			"stadt": "Neubrandenburg",
			"tel": "",
			"fax": "",
			"web": "",
			"mail": "",
			"lat": "53.561511",
			"lng": "13.250156",
			"art": "Rettungswache"
		},
		{
			"station": "Rettungswache Rostock",
			"abteilung": "",
			"strasse": "Augustenstraße",
			"hausnr": "124",
			"plz": "18055",
			"stadt": "Rostock",
			"tel": "",
			"fax": "",
			"web": "",
			"mail": "",
			"lat": "54.084600",
			"lng": "12.139824",
			"art": "Rettungswache"
		},
		{
			"station": "Rettungswache Rostock",
			"abteilung": "",
			"strasse": "Schillingallee",
			"hausnr": "35",
			"plz": "18057",
			"stadt": "Rostock",
			"tel": "",
			"fax": "",
			"web": "",
			"mail": "",
			"lat": "54.083908",
			"lng": "12.099624",
			"art": "Rettungswache"
		},
		{
			"station": "Rettungswache Rostock",
			"abteilung": "",
			"strasse": "Erich-Schlesinger-straße",
			"hausnr": "24",
			"plz": "18059",
			"stadt": "Rostock",
			"tel": "",
			"fax": "",
			"web": "",
			"mail": "",
			"lat": "54.077804",
			"lng": "12.117005",
			"art": "Rettungswache"
		},
		{
			"station": "Rettungswache Rostock",
			"abteilung": "",
			"strasse": "Südring",
			"hausnr": "81",
			"plz": "18059",
			"stadt": "Rostock",
			"tel": "",
			"fax": "",
			"web": "",
			"mail": "",
			"lat": "54.072716",
			"lng": "12.107284",
			"art": "Rettungswache"
		},
		{
			"station": "Rettungswache Rostock",
			"abteilung": "",
			"strasse": "Eikboomweg",
			"hausnr": "32",
			"plz": "18069",
			"stadt": "Rostock",
			"tel": "",
			"fax": "",
			"web": "",
			"mail": "",
			"lat": "54.101051",
			"lng": "12.087704",
			"art": "Rettungswache"
		},
		{
			"station": "Rettungswache Rostock",
			"abteilung": "",
			"strasse": "Rigaer Straße",
			"hausnr": "21",
			"plz": "18107",
			"stadt": "Rostock",
			"tel": "",
			"fax": "",
			"web": "",
			"mail": "",
			"lat": "54.140224",
			"lng": "12.059166",
			"art": "Rettungswache"
		},
		{
			"station": "Rettungswache Rostock",
			"abteilung": "",
			"strasse": "Warnow-Enn",
			"hausnr": "1",
			"plz": "18109",
			"stadt": "Rostock",
			"tel": "",
			"fax": "",
			"web": "",
			"mail": "",
			"lat": "54.154692",
			"lng": "12.092149",
			"art": "Rettungswache"
		},
		{
			"station": "Rettungswache Rostock",
			"abteilung": "",
			"strasse": "Wiesenweg",
			"hausnr": "12",
			"plz": "18119",
			"stadt": "Rostock",
			"tel": "",
			"fax": "",
			"web": "",
			"mail": "",
			"lat": "54.174298",
			"lng": "12.077939",
			"art": "Rettungswache"
		},
		{
			"station": "Rettungswache Rostock",
			"abteilung": "",
			"strasse": "Hannes-Meyer-Platz",
			"hausnr": "7",
			"plz": "18146",
			"stadt": "Rostock",
			"tel": "",
			"fax": "",
			"web": "",
			"mail": "",
			"lat": "54.103436",
			"lng": "12.166485",
			"art": "Rettungswache"
		},
		{
			"station": "Rettungswache Rostock",
			"abteilung": "",
			"strasse": "An der Feuerwache",
			"hausnr": "1",
			"plz": "18147",
			"stadt": "Rostock",
			"tel": "",
			"fax": "",
			"web": "",
			"mail": "",
			"lat": "54.144977",
			"lng": "12.113218",
			"art": "Rettungswache"
		},
		{
			"station": "Rettungswache Schwerin",
			"abteilung": "",
			"strasse": "Lübecker Straße",
			"hausnr": "208",
			"plz": "19059",
			"stadt": "Schwerin",
			"tel": "",
			"fax": "",
			"web": "",
			"mail": "",
			"lat": "53.639137",
			"lng": "11.393104",
			"art": "Rettungswache"
		},
		{
			"station": "Rettungswache Schwerin",
			"abteilung": "",
			"strasse": "Graf-Yorck-straße",
			"hausnr": "21",
			"plz": "19061",
			"stadt": "Schwerin",
			"tel": "",
			"fax": "",
			"web": "",
			"mail": "",
			"lat": "53.591614",
			"lng": "11.430243",
			"art": "Rettungswache"
		},
		{
			"station": "Rettungswache Stralsund",
			"abteilung": "",
			"strasse": "Prohner Straße",
			"hausnr": "31",
			"plz": "18435",
			"stadt": "Stralsund",
			"tel": "",
			"fax": "",
			"web": "",
			"mail": "",
			"lat": "54.329591",
			"lng": "13.070688",
			"art": "Rettungswache"
		},
		{
			"station": "Rettungswache Stralsund",
			"abteilung": "",
			"strasse": "Am Paschenberg",
			"hausnr": "16",
			"plz": "18439",
			"stadt": "Stralsund",
			"tel": "",
			"fax": "",
			"web": "",
			"mail": "",
			"lat": "54.296890",
			"lng": "13.088800",
			"art": "Rettungswache"
		},
		{
			"station": "Rettungswache Stralsund",
			"abteilung": "",
			"strasse": "Am Fährwall",
			"hausnr": "18",
			"plz": "18439",
			"stadt": "Stralsund",
			"tel": "",
			"fax": "",
			"web": "",
			"mail": "",
			"lat": "54.318384",
			"lng": "13.091237",
			"art": "Rettungswache"
		},
		{
			"station": "Rettungswache Wismar",
			"abteilung": "",
			"strasse": "Frische Grube",
			"hausnr": "13",
			"plz": "23966",
			"stadt": "Wismar",
			"tel": "",
			"fax": "",
			"web": "",
			"mail": "",
			"lat": "53.894681",
			"lng": "11.463198",
			"art": "Rettungswache"
		},
		{
			"station": "Rettungswache Wismar",
			"abteilung": "",
			"strasse": "Turnerweg",
			"hausnr": "11",
			"plz": "23966",
			"stadt": "Wismar",
			"tel": "",
			"fax": "",
			"web": "",
			"mail": "",
			"lat": "53.887305",
			"lng": "11.469228",
			"art": "Rettungswache"
		},
		{
			"station": "Rettungswache Rövershagen",
			"abteilung": "",
			"strasse": "Graal-Müritzer Straße",
			"hausnr": "16",
			"plz": "18182",
			"stadt": "Rövershagen",
			"tel": "",
			"fax": "",
			"web": "",
			"mail": "",
			"lat": "54.176549",
			"lng": "12.229699",
			"art": "Rettungswache"
		},
		{
			"station": "Rettungswache Tessin",
			"abteilung": "",
			"strasse": "Karl-Marx-straße",
			"hausnr": "16",
			"plz": "18195",
			"stadt": "Tessin",
			"tel": "",
			"fax": "",
			"web": "",
			"mail": "",
			"lat": "54.027246",
			"lng": "12.460929",
			"art": "Rettungswache"
		},
		{
			"station": "Rettungswache Beselin",
			"abteilung": "",
			"strasse": "Am Weidenbruch",
			"hausnr": "9",
			"plz": "18196",
			"stadt": "Beselin",
			"tel": "",
			"fax": "",
			"web": "",
			"mail": "",
			"lat": "54.038343",
			"lng": "12.211725",
			"art": "Rettungswache"
		},
		{
			"station": "Rettungswache Bad Doberan",
			"abteilung": "",
			"strasse": "Seestraße",
			"hausnr": "12",
			"plz": "18209",
			"stadt": "Bad Doberan",
			"tel": "",
			"fax": "",
			"web": "",
			"mail": "",
			"lat": "54.111764",
			"lng": "11.904800",
			"art": "Rettungswache"
		},
		{
			"station": "Rettungswache Neubukow",
			"abteilung": "",
			"strasse": "Im Amtsgarten",
			"hausnr": "1",
			"plz": "18233",
			"stadt": "Neubukow",
			"tel": "",
			"fax": "",
			"web": "",
			"mail": "",
			"lat": "54.033687",
			"lng": "11.672407",
			"art": "Rettungswache"
		},
		{
			"station": "Rettungswache Satow",
			"abteilung": "",
			"strasse": "Heller Weg",
			"hausnr": "2a",
			"plz": "18239",
			"stadt": "Satow",
			"tel": "",
			"fax": "",
			"web": "",
			"mail": "",
			"lat": "53.990015",
			"lng": "11.892300",
			"art": "Rettungswache"
		},
		{
			"station": "Rettungswache Kühlungsborn",
			"abteilung": "",
			"strasse": "Rudolf-Breitscheid-straße",
			"hausnr": "14",
			"plz": "18255",
			"stadt": "Kühlungsborn",
			"tel": "",
			"fax": "",
			"web": "",
			"mail": "",
			"lat": "54.150878",
			"lng": "11.760856",
			"art": "Rettungswache"
		},
		{
			"station": "Rettungswache Schwaan",
			"abteilung": "",
			"strasse": "Bützower Straße",
			"hausnr": "67",
			"plz": "18258",
			"stadt": "Schwaan",
			"tel": "",
			"fax": "",
			"web": "",
			"mail": "",
			"lat": "53.936189",
			"lng": "12.100362",
			"art": "Rettungswache"
		},
		{
			"station": "Rettungswache Altentreptow",
			"abteilung": "",
			"strasse": "Poststraße",
			"hausnr": "15",
			"plz": "17087",
			"stadt": "Altentreptow",
			"tel": "",
			"fax": "",
			"web": "",
			"mail": "",
			"lat": "53.692382",
			"lng": "13.247380",
			"art": "Rettungswache"
		},
		{
			"station": "Rettungswache Demmin",
			"abteilung": "",
			"strasse": "Neuer Weg",
			"hausnr": "7",
			"plz": "17109",
			"stadt": "Demmin",
			"tel": "",
			"fax": "",
			"web": "",
			"mail": "",
			"lat": "53.905971",
			"lng": "13.062375",
			"art": "Rettungswache"
		},
		{
			"station": "Rettungswache Loitz",
			"abteilung": "",
			"strasse": "Goethestraße",
			"hausnr": "46",
			"plz": "17121",
			"stadt": "Loitz",
			"tel": "",
			"fax": "",
			"web": "",
			"mail": "",
			"lat": "53.976338",
			"lng": "13.138185",
			"art": "Rettungswache"
		},
		{
			"station": "Rettungswache Jarmen",
			"abteilung": "",
			"strasse": "Am Klinkenberg",
			"hausnr": "1",
			"plz": "17126",
			"stadt": "Jarmen",
			"tel": "",
			"fax": "",
			"web": "",
			"mail": "",
			"lat": "53.921996",
			"lng": "13.345975",
			"art": "Rettungswache"
		},
		{
			"station": "Rettungswache Malchin",
			"abteilung": "",
			"strasse": "Fritz-Reuter-Platz",
			"hausnr": "9",
			"plz": "17139",
			"stadt": "Malchin",
			"tel": "",
			"fax": "",
			"web": "",
			"mail": "",
			"lat": "53.740883",
			"lng": "12.754573",
			"art": "Rettungswache"
		},
		{
			"station": "Rettungswache Stavenhagen",
			"abteilung": "",
			"strasse": "Schultetusstraße",
			"hausnr": "24",
			"plz": "17530",
			"stadt": "Stavenhagen",
			"tel": "",
			"fax": "",
			"web": "",
			"mail": "",
			"lat": "53.701543",
			"lng": "12.910325",
			"art": "Rettungswache"
		},
		{
			"station": "Rettungswache Teterow",
			"abteilung": "",
			"strasse": "Goethestraße",
			"hausnr": "19",
			"plz": "17166",
			"stadt": "Teterow",
			"tel": "",
			"fax": "",
			"web": "",
			"mail": "",
			"lat": "53.775264",
			"lng": "12.570407",
			"art": "Rettungswache"
		},
		{
			"station": "Rettungswache Gnoien",
			"abteilung": "",
			"strasse": "Schützenplatz",
			"hausnr": "12",
			"plz": "17179",
			"stadt": "Gnoien",
			"tel": "",
			"fax": "",
			"web": "",
			"mail": "",
			"lat": "53.971926",
			"lng": "12.704715",
			"art": "Rettungswache"
		},
		{
			"station": "Rettungswache Güstrow",
			"abteilung": "",
			"strasse": "Hagemeisterstraße",
			"hausnr": "5",
			"plz": "18237",
			"stadt": "Güstrow",
			"tel": "",
			"fax": "",
			"web": "",
			"mail": "",
			"lat": "53.794482",
			"lng": "12.161065",
			"art": "Rettungswache"
		},
		{
			"station": "Rettungswache Güstrow",
			"abteilung": "",
			"strasse": "Friedrich-Engels-straße",
			"hausnr": "26",
			"plz": "18237",
			"stadt": "Güstrow",
			"tel": "",
			"fax": "",
			"web": "",
			"mail": "",
			"lat": "53.778420",
			"lng": "12.177246",
			"art": "Rettungswache"
		},
		{
			"station": "Rettungswache Bützow",
			"abteilung": "",
			"strasse": "Am Ausfall",
			"hausnr": "53",
			"plz": "18246",
			"stadt": "Bützow",
			"tel": "",
			"fax": "",
			"web": "",
			"mail": "",
			"lat": "53.847038",
			"lng": "11.981504",
			"art": "Rettungswache"
		},
		{
			"station": "Rettungswache Krakow a. See",
			"abteilung": "",
			"strasse": "Kirchenstraße",
			"hausnr": "2",
			"plz": "18292",
			"stadt": "Krakow a. See",
			"tel": "",
			"fax": "",
			"web": "",
			"mail": "",
			"lat": "53.652179",
			"lng": "12.270474",
			"art": "Rettungswache"
		},
		{
			"station": "Rettungswache Laage",
			"abteilung": "",
			"strasse": "Franz-Susemihl-straße",
			"hausnr": "17 g",
			"plz": "18299",
			"stadt": "Laage",
			"tel": "",
			"fax": "",
			"web": "",
			"mail": "",
			"lat": "53.922476",
			"lng": "12.358059",
			"art": "Rettungswache"
		},
		{
			"station": "Rettungswache Hagenow",
			"abteilung": "",
			"strasse": "Bahnhofstraße",
			"hausnr": "61",
			"plz": "19230",
			"stadt": "Hagenow",
			"tel": "",
			"fax": "",
			"web": "",
			"mail": "",
			"lat": "53.430567",
			"lng": "11.193994",
			"art": "Rettungswache"
		},
		{
			"station": "Rettungswache Hagenow",
			"abteilung": "",
			"strasse": "Parkstraße",
			"hausnr": "12",
			"plz": "19230",
			"stadt": "Hagenow",
			"tel": "",
			"fax": "",
			"web": "",
			"mail": "",
			"lat": "53.433758",
			"lng": "11.183326",
			"art": "Rettungswache"
		},
		{
			"station": "Rettungswache Zarrentin",
			"abteilung": "",
			"strasse": "Am Heisterbusch",
			"hausnr": "1",
			"plz": "19246",
			"stadt": "Zarrentin",
			"tel": "",
			"fax": "",
			"web": "",
			"mail": "",
			"lat": "53.509813",
			"lng": "10.852245",
			"art": "Rettungswache"
		},
		{
			"station": "Rettungswache Boizenburg",
			"abteilung": "",
			"strasse": "Bahnhofstraße",
			"hausnr": "69",
			"plz": "19258",
			"stadt": "Boizenburg",
			"tel": "",
			"fax": "",
			"web": "",
			"mail": "",
			"lat": "53.375177",
			"lng": "10.745401",
			"art": "Rettungswache"
		},
		{
			"station": "Rettungswache Boizenburg",
			"abteilung": "",
			"strasse": "Schwanheider Straße",
			"hausnr": "17",
			"plz": "19258",
			"stadt": "Boizenburg",
			"tel": "",
			"fax": "",
			"web": "",
			"mail": "",
			"lat": "53.382535",
			"lng": "10.714144",
			"art": "Rettungswache"
		},
		{
			"station": "Rettungswache Neuhaus",
			"abteilung": "",
			"strasse": "Poststraße",
			"hausnr": "15",
			"plz": "19273",
			"stadt": "Amt Neuhaus",
			"tel": "",
			"fax": "",
			"web": "",
			"mail": "",
			"lat": "53.285480",
			"lng": "10.930515",
			"art": "Rettungswache"
		},
		{
			"station": "Rettungswache Ludwigslust",
			"abteilung": "",
			"strasse": "Grabower Allee",
			"hausnr": "2",
			"plz": "19288",
			"stadt": "Ludwigslust",
			"tel": "",
			"fax": "",
			"web": "",
			"mail": "",
			"lat": "53.320696",
			"lng": "11.497926",
			"art": "Rettungswache"
		},
		{
			"station": "Rettungswache Neu Kaliß",
			"abteilung": "",
			"strasse": "Mühlenstraße",
			"hausnr": "1",
			"plz": "19294",
			"stadt": "Neu Kaliß",
			"tel": "",
			"fax": "",
			"web": "",
			"mail": "",
			"lat": "53.177428",
			"lng": "11.292631",
			"art": "Rettungswache"
		},
		{
			"station": "Rettungswache Neustadt-Glewe",
			"abteilung": "",
			"strasse": "Neuhöfer Straße",
			"hausnr": "33",
			"plz": "19306",
			"stadt": "Neustadt-Glewe",
			"tel": "",
			"fax": "",
			"web": "",
			"mail": "",
			"lat": "53.382492",
			"lng": "11.596246",
			"art": "Rettungswache"
		},
		{
			"station": "Rettungswache Friedland",
			"abteilung": "",
			"strasse": "Bauersheimer Weg",
			"hausnr": "9",
			"plz": "17098",
			"stadt": "Friedland",
			"tel": "",
			"fax": "",
			"web": "",
			"mail": "",
			"lat": "53.678687",
			"lng": "13.569206",
			"art": "Rettungswache"
		},
		{
			"station": "Rettungswache Neustrelitz",
			"abteilung": "",
			"strasse": "An der Promenade",
			"hausnr": "1",
			"plz": "17235",
			"stadt": "Neustrelitz",
			"tel": "",
			"fax": "",
			"web": "",
			"mail": "",
			"lat": "53.361430",
			"lng": "13.058784",
			"art": "Rettungswache"
		},
		{
			"station": "Rettungswache Usadel",
			"abteilung": "",
			"strasse": "Dorfstraße",
			"hausnr": "17",
			"plz": "17237",
			"stadt": "Klein Vielen",
			"tel": "",
			"fax": "",
			"web": "",
			"mail": "",
			"lat": "53.452928",
			"lng": "13.029229",
			"art": "Rettungswache"
		},
		{
			"station": "Rettungswache Mirow",
			"abteilung": "",
			"strasse": "Rudolf-Breitscheid-straße",
			"hausnr": "29",
			"plz": "17252",
			"stadt": "Mirow",
			"tel": "",
			"fax": "",
			"web": "",
			"mail": "",
			"lat": "53.277331",
			"lng": "12.815372",
			"art": "Rettungswache"
		},
		{
			"station": "Rettungswache Feldberg",
			"abteilung": "",
			"strasse": "Prenzlauer Allee",
			"hausnr": "2",
			"plz": "17258",
			"stadt": "Feldberg",
			"tel": "",
			"fax": "",
			"web": "",
			"mail": "",
			"lat": "53.336588",
			"lng": "13.500479",
			"art": "Rettungswache"
		},
		{
			"station": "Rettungswache Alt Käbelich",
			"abteilung": "",
			"strasse": "Hauptstraße",
			"hausnr": "31",
			"plz": "17348",
			"stadt": "Alt Käbelich",
			"tel": "",
			"fax": "",
			"web": "",
			"mail": "",
			"lat": "53.492664",
			"lng": "13.495804",
			"art": "Rettungswache"
		},
		{
			"station": "Rettungswache Waren (Müritz)",
			"abteilung": "",
			"strasse": "Weinbergstraße",
			"hausnr": "19",
			"plz": "17192",
			"stadt": "Waren (Müritz)",
			"tel": "",
			"fax": "",
			"web": "",
			"mail": "",
			"lat": "53.522094",
			"lng": "12.684080",
			"art": "Rettungswache"
		},
		{ 
			"station": "Rettungswache Moltzow",
			"abteilung": "",
			"strasse": "Schulstraße",
			"hausnr": "22",
			"plz": "17194",
			"stadt": "Moltzow",
			"tel": "",
			"fax": "",
			"web": "",
			"mail": "",
			"lat": "53.629120",
			"lng": "12.576905",
			"art": "Rettungswache"
		},
		{
			"station": "Rettungswache Röbel/Müritz",
			"abteilung": "",
			"strasse": "Glienholzweg",
			"hausnr": "3",
			"plz": "17207",
			"stadt": "Röbel/Müritz",
			"tel": "",
			"fax": "",
			"web": "",
			"mail": "",
			"lat": "53.373476",
			"lng": "12.585764",
			"art": "Rettungswache"
		},
		{
			"station": "Rettungswache Malchow",
			"abteilung": "",
			"strasse": "Lindenallee",
			"hausnr": "2",
			"plz": "17213",
			"stadt": "Malchow",
			"tel": "",
			"fax": "",
			"web": "",
			"mail": "",
			"lat": "53.482313",
			"lng": "12.419393",
			"art": "Rettungswache"
		},
		{ 
			"station": "Rettungswache Möllenhagen",
			"abteilung": "",
			"strasse": "Steinweg",
			"hausnr": "2",
			"plz": "17219",
			"stadt": "Möllenhagen",
			"tel": "",
			"fax": "",
			"web": "",
			"mail": "",
			"lat": "53.525760",
			"lng": "12.930051",
			"art": "Rettungswache"
		},
		{
			"station": "Rettungswache Reinberg",
			"abteilung": "",
			"strasse": "Stahlbrodestraße",
			"hausnr": "1",
			"plz": "17091",
			"stadt": "Reinberg",
			"tel": "",
			"fax": "",
			"web": "",
			"mail": "",
			"lat": "54.214378",
			"lng": "13.251408",
			"art": "Rettungswache"
		},
		{
			"station": "Rettungswache Ribnitz-Damgarten",
			"abteilung": "",
			"strasse": "Damgartener Chaussee",
			"hausnr": "1",
			"plz": "18311",
			"stadt": "Ribnitz-Damgarten",
			"tel": "",
			"fax": "",
			"web": "",
			"mail": "",
			"lat": "54.242622",
			"lng": "12.438255",
			"art": "Rettungswache"
		},
		{
			"station": "Rettungswache Ribnitz-Damgarten",
			"abteilung": "",
			"strasse": "Köckwitzer Weg",
			"hausnr": "1",
			"plz": "18311",
			"stadt": "Ribnitz-Damgarten",
			"tel": "",
			"fax": "",
			"web": "",
			"mail": "",
			"lat": "54.243785",
			"lng": "12.422932",
			"art": "Rettungswache"
		},
		{
			"station": "Rettungswache Bad Sülze",
			"abteilung": "",
			"strasse": "Rosengarten",
			"hausnr": "1",
			"plz": "18334",
			"stadt": "Bad Sülze",
			"tel": "",
			"fax": "",
			"web": "",
			"mail": "",
			"lat": "54.111573",
			"lng": "12.653545",
			"art": "Rettungswache"
		},
		{
			"station": "Rettungswache Barth",
			"abteilung": "",
			"strasse": "Waldstraße",
			"hausnr": "2",
			"plz": "18356",
			"stadt": "Barth",
			"tel": "",
			"fax": "",
			"web": "",
			"mail": "",
			"lat": "54.367712",
			"lng": "12.689904",
			"art": "Rettungswache"
		},
		{
			"station": "Rettungswache Prerow",
			"abteilung": "",
			"strasse": "Bergstraße",
			"hausnr": "18",
			"plz": "18375",
			"stadt": "Prerow",
			"tel": "",
			"fax": "",
			"web": "",
			"mail": "",
			"lat": "54.442229",
			"lng": "12.570096",
			"art": "Rettungswache"
		},
		{
			"station": "Rettungswache Parow",
			"abteilung": "",
			"strasse": "Neue Straße am Sund",
			"hausnr": "1",
			"plz": "18445",
			"stadt": "Parow",
			"tel": "",
			"fax": "",
			"web": "",
			"mail": "",
			"lat": "54.349011",
			"lng": "13.069925",
			"art": "Rettungswache"
		},
		{ 
			"station": "Rettungswache Richtenberg",
			"abteilung": "",
			"strasse": "Mühlenbergstraße",
			"hausnr": "18",
			"plz": "18461",
			"stadt": "Richtenberg",
			"tel": "",
			"fax": "",
			"web": "",
			"mail": "",
			"lat": "54.199657",
			"lng": "12.894208",
			"art": "Rettungswache"
		},
		{
			"station": "Rettungswache Karnin",
			"abteilung": "",
			"strasse": "Dorfstraße",
			"hausnr": "1",
			"plz": "18469",
			"stadt": "Karnin",
			"tel": "",
			"fax": "",
			"web": "",
			"mail": "",
			"lat": "54.298428",
			"lng": "12.791815",
			"art": "Rettungswache"
		},
		{
			"station": "Rettungswache Grimmen",
			"abteilung": "",
			"strasse": "Bergstraße",
			"hausnr": "1",
			"plz": "18507",
			"stadt": "Grimmen",
			"tel": "",
			"fax": "",
			"web": "",
			"mail": "",
			"lat": "54.112402",
			"lng": "13.050926",
			"art": "Rettungswache"
		},
		{
			"station": "Rettungswache Bartmannshagen",
			"abteilung": "",
			"strasse": "Dorfstraße",
			"hausnr": "1",
			"plz": "18516",
			"stadt": "Bartmannshagen",
			"tel": "",
			"fax": "",
			"web": "",
			"mail": "",
			"lat": "54.118367",
			"lng": "13.107362",
			"art": "Rettungswache"
		},
		{ 
			"station": "Rettungswache Gadebusch",
			"abteilung": "",
			"strasse": "Erich-Weinert-straße",
			"hausnr": "29",
			"plz": "19205",
			"stadt": "Gadebusch",
			"tel": "",
			"fax": "",
			"web": "",
			"mail": "",
			"lat": "53.697040",
			"lng": "11.110505",
			"art": "Rettungswache"
		},
		{
			"station": "Rettungswache Lützow",
			"abteilung": "",
			"strasse": "Pokrenter Straße",
			"hausnr": "3",
			"plz": "19209",
			"stadt": "Lützow",
			"tel": "",
			"fax": "",
			"web": "",
			"mail": "",
			"lat": "53.653126",
			"lng": "11.172586",
			"art": "Rettungswache"
		},
		{
			"station": "Rettungswache Schönberg",
			"abteilung": "",
			"strasse": "Rudolf-Hartmann-straße",
			"hausnr": "11",
			"plz": "23923",
			"stadt": "Schönberg",
			"tel": "",
			"fax": "",
			"web": "",
			"mail": "",
			"lat": "53.850461",
			"lng": "10.923507",
			"art": "Rettungswache"
		},
		{
			"station": "Rettungswache Grevesmühlen",
			"abteilung": "",
			"strasse": "Klützer Straße",
			"hausnr": "13",
			"plz": "23936",
			"stadt": "Grevesmühlen",
			"tel": "",
			"fax": "",
			"web": "",
			"mail": "",
			"lat": "53.868058",
			"lng": "11.181952",
			"art": "Rettungswache"
		},
		{
			"station": "Rettungswache Neuburg",
			"abteilung": "",
			"strasse": "Hauptstraße",
			"hausnr": "25",
			"plz": "23947",
			"stadt": "Neuburg",
			"tel": "",
			"fax": "",
			"web": "",
			"mail": "",
			"lat": "53.989134",
			"lng": "11.535196",
			"art": "Rettungswache"
		},
		{
			"station": "Rettungswache Klütz",
			"abteilung": "",
			"strasse": "Am Festplatz",
			"hausnr": "1",
			"plz": "23948",
			"stadt": "Klütz",
			"tel": "",
			"fax": "",
			"web": "",
			"mail": "",
			"lat": "53.893871",
			"lng": "11.433085",
			"art": "Rettungswache"
		},
		{
			"station": "Rettungswache Bad Kleinen",
			"abteilung": "",
			"strasse": "Steinstraße",
			"hausnr": "29",
			"plz": "23996",
			"stadt": "Bad Kleinen",
			"tel": "",
			"fax": "",
			"web": "",
			"mail": "",
			"lat": "53.769303",
			"lng": "11.467815",
			"art": "Rettungswache"
		},
		{
			"station": "Rettungswache Neukloster",
			"abteilung": "",
			"strasse": "Perniker Straße",
			"hausnr": "1",
			"plz": "23992",
			"stadt": "Neukloster",
			"tel": "",
			"fax": "",
			"web": "",
			"mail": "",
			"lat": "53.866408",
			"lng": "11.691302",
			"art": "Rettungswache"
		},
		{
			"station": "Rettungswache Anklam",
			"abteilung": "",
			"strasse": "Ravelinstraße",
			"hausnr": "17",
			"plz": "17389",
			"stadt": "Anklam",
			"tel": "",
			"fax": "",
			"web": "",
			"mail": "",
			"lat": "53.856917",
			"lng": "13.693679",
			"art": "Rettungswache"
		},
		{
			"station": "Rettungswache Usedom",
			"abteilung": "",
			"strasse": "Stolper Straße",
			"hausnr": "2",
			"plz": "17406",
			"stadt": "Usedom",
			"tel": "",
			"fax": "",
			"web": "",
			"mail": "",
			"lat": "53.878287",
			"lng": "13.936097",
			"art": "Rettungswache"
		},
		{
			"station": "Rettungswache Heringsdorf",
			"abteilung": "",
			"strasse": "Neuhof",
			"hausnr": "1",
			"plz": "17424",
			"stadt": "Heringsdorf",
			"tel": "",
			"fax": "",
			"web": "",
			"mail": "",
			"lat": "53.961282",
			"lng": "14.153358",
			"art": "Rettungswache"
		},
		{ 
			"station": "Rettungswache Wolgast",
			"abteilung": "",
			"strasse": "Chausseestraße",
			"hausnr": "52",
			"plz": "17438",
			"stadt": "Wolgast",
			"tel": "",
			"fax": "",
			"web": "",
			"mail": "",
			"lat": "54.046018",
			"lng": "13.750337",
			"art": "Rettungswache"
		},
		{ 
			"station": "Rettungswache Zinnowitz",
			"abteilung": "",
			"strasse": "Neue Strandstraße",
			"hausnr": "33",
			"plz": "17454",
			"stadt": "Zinnowitz",
			"tel": "",
			"fax": "",
			"web": "",
			"mail": "",
			"lat": "54.079871",
			"lng": "13.914394",
			"art": "Rettungswache"
		},
		{
			"station": "Rettungswache Züssow",
			"abteilung": "",
			"strasse": "Chausseestraße",
			"hausnr": "1",
			"plz": "17495",
			"stadt": "Züssow",
			"tel": "",
			"fax": "",
			"web": "",
			"mail": "",
			"lat": "53.978071",
			"lng": "13.550024",
			"art": "Rettungswache"
		},
		{
			"station": "Rettungswache Wusterhusen",
			"abteilung": "",
			"strasse": "Bergstraße",
			"hausnr": "1",
			"plz": "17509",
			"stadt": "Wusterhusen",
			"tel": "",
			"fax": "",
			"web": "",
			"mail": "",
			"lat": "54.112897",
			"lng": "13.617096",
			"art": "Rettungswache"
		},
		{
			"station": "Rettungswache Plau am See",
			"abteilung": "",
			"strasse": "Quetziner Straße",
			"hausnr": "1",
			"plz": "19350",
			"stadt": "Plau am See",
			"tel": "",
			"fax": "",
			"web": "",
			"mail": "",
			"lat": "53.460398",
			"lng": "12.264518",
			"art": "Rettungswache"
		},
		{
			"station": "Rettungswache Parchim",
			"abteilung": "",
			"strasse": "Pestalozziweg",
			"hausnr": "19",
			"plz": "19370",
			"stadt": "Parchim",
			"tel": "",
			"fax": "",
			"web": "",
			"mail": "",
			"lat": "53.423386",
			"lng": "11.859146",
			"art": "Rettungswache"
		},
		{
			"station": "Rettungswache Lübz",
			"abteilung": "",
			"strasse": "Scharnhorststraße",
			"hausnr": "25",
			"plz": "19386",
			"stadt": "Lübz",
			"tel": "",
			"fax": "",
			"web": "",
			"mail": "",
			"lat": "53.464073",
			"lng": "12.033324",
			"art": "Rettungswache"
		},
		{
			"station": "Rettungswache Goldberg",
			"abteilung": "",
			"strasse": "Lübzer Straße",
			"hausnr": "14",
			"plz": "19399",
			"stadt": "Goldberg",
			"tel": "",
			"fax": "",
			"web": "",
			"mail": "",
			"lat": "53.585336",
			"lng": "12.087779",
			"art": "Rettungswache"
		},
		{
			"station": "Rettungswache Sternberg",
			"abteilung": "",
			"strasse": "Karl-Marx-straße",
			"hausnr": "25",
			"plz": "19406",
			"stadt": "Sternberg",
			"tel": "",
			"fax": "",
			"web": "",
			"mail": "",
			"lat": "53.714199",
			"lng": "11.819974",
			"art": "Rettungswache"
		},
		{
			"station": "Rettungswache Crivitz",
			"abteilung": "",
			"strasse": "Amtsstraße",
			"hausnr": "1",
			"plz": "19809",
			"stadt": "Crivitz",
			"tel": "",
			"fax": "",
			"web": "",
			"mail": "",
			"lat": "53.575416",
			"lng": "11.648518",
			"art": "Rettungswache"
		},
		{
			"station": "Rettungswache Bergen auf Rügen",
			"abteilung": "",
			"strasse": "Raddasstraße",
			"hausnr": "18",
			"plz": "18528",
			"stadt": "Bergen auf Rügen",
			"tel": "",
			"fax": "",
			"web": "",
			"mail": "",
			"lat": "54.420983",
			"lng": "13.433147",
			"art": "Rettungswache"
		},
		{
			"station": "Rettungswache Saßnitz",
			"abteilung": "",
			"strasse": "Gewerbepark",
			"hausnr": "15",
			"plz": "18546",
			"stadt": "Saßnitz",
			"tel": "",
			"fax": "",
			"web": "",
			"mail": "",
			"lat": "54.513339",
			"lng": "13.602107",
			"art": "Rettungswache"
		},
		{
			"station": "Rettungswache Altenkirchen",
			"abteilung": "",
			"strasse": "Neue Straße",
			"hausnr": "2",
			"plz": "18556",
			"stadt": "Altenkirchen",
			"tel": "",
			"fax": "",
			"web": "",
			"mail": "",
			"lat": "54.637356",
			"lng": "13.347060",
			"art": "Rettungswache"
		},
		{
			"station": "Rettungswache Kloster",
			"abteilung": "",
			"strasse": "Am Hochland",
			"hausnr": "2",
			"plz": "18565",
			"stadt": "Kloster",
			"tel": "",
			"fax": "",
			"web": "",
			"mail": "",
			"lat": "54.586654",
			"lng": "13.105407",
			"art": "Rettungswache"
		},
		{
			"station": "Rettungswache Samtens",
			"abteilung": "",
			"strasse": "Poststraße",
			"hausnr": "61",
			"plz": "18573",
			"stadt": "Samtens",
			"tel": "",
			"fax": "",
			"web": "",
			"mail": "",
			"lat": "54.357364",
			"lng": "13.289450",
			"art": "Rettungswache"
		},
		{
			"station": "Rettungswache Baabe",
			"abteilung": "",
			"strasse": "Göhrener Chaussee",
			"hausnr": "1a",
			"plz": "18586",
			"stadt": "Baabe",
			"tel": "",
			"fax": "",
			"web": "",
			"mail": "",
			"lat": "54.363026",
			"lng": "13.705424",
			"art": "Rettungswache"
		},
		{
			"station": "Rettungswache Binz",
			"abteilung": "",
			"strasse": "Mukraner Straße",
			"hausnr": "3",
			"plz": "18609",
			"stadt": "Binz",
			"tel": "",
			"fax": "",
			"web": "",
			"mail": "",
			"lat": "54.405935",
			"lng": "13.606785",
			"art": "Rettungswache"
		},
		{
			"station": "Rettungswache Pasewalk",
			"abteilung": "",
			"strasse": "Oskar-Picht-straße",
			"hausnr": "60",
			"plz": "17309",
			"stadt": "Pasewalk",
			"tel": "",
			"fax": "",
			"web": "",
			"mail": "",
			"lat": "53.500174",
			"lng": "13.987619",
			"art": "Rettungswache"
		},
		{
			"station": "Rettungswache Löcknitz",
			"abteilung": "",
			"strasse": "Karl-Liebknecht-straße",
			"hausnr": "5",
			"plz": "17321",
			"stadt": "Löcknitz",
			"tel": "",
			"fax": "",
			"web": "",
			"mail": "",
			"lat": "53.451644",
			"lng": "14.217555",
			"art": "Rettungswache"
		},
		{
			"station": "Rettungswache Penkun",
			"abteilung": "",
			"strasse": "Sandkuhlstraße",
			"hausnr": "8",
			"plz": "17328",
			"stadt": "Penkun",
			"tel": "",
			"fax": "",
			"web": "",
			"mail": "",
			"lat": "53.297833",
			"lng": "14.233835",
			"art": "Rettungswache"
		},
		{
			"station": "Rettungswache Strasburg",
			"abteilung": "",
			"strasse": "Lindenstraße",
			"hausnr": "2",
			"plz": "17335",
			"stadt": "Strasburg",
			"tel": "",
			"fax": "",
			"web": "",
			"mail": "",
			"lat": "53.508873",
			"lng": "13.751245",
			"art": "Rettungswache"
		},
		{
			"station": "Rettungswache Torgelow",
			"abteilung": "",
			"strasse": "Espelkamper Straße",
			"hausnr": "10 a",
			"plz": "17358",
			"stadt": "Torgelow",
			"tel": "",
			"fax": "",
			"web": "",
			"mail": "",
			"lat": "53.632687",
			"lng": "14.005175",
			"art": "Rettungswache"
		},
		{
			"station": "Rettungswache Ueckermünde",
			"abteilung": "",
			"strasse": "Chausseestraße",
			"hausnr": "68",
			"plz": "17373",
			"stadt": "Ueckermünde",
			"tel": "",
			"fax": "",
			"web": "",
			"mail": "",
			"lat": "53.738484",
			"lng": "14.041227",
			"art": "Rettungswache"
		},
		{
			"station": "Rettungswache Ferdinandshof",
			"abteilung": "",
			"strasse": "Pasewalker Straße",
			"hausnr": "63 a",
			"plz": "17379",
			"stadt": "Ferdinandshof",
			"tel": "",
			"fax": "",
			"web": "",
			"mail": "",
			"lat": "53.660654",
			"lng": "13.899224",
			"art": "Rettungswache"
		},
		{
			"station": "Klinikum Niederlausitz GmbH",
			"abteilung": "Zentrum für Neurologie und Schmerztherapie, Abt. für vaskuläre Neurologie/Stroke Unit",
			"strasse": "Krankenhausstraße",
			"hausnr": "10",
			"plz": "01968",
			"stadt": "Senftenberg",
			"tel": "03573 75-0",
			"fax": "",
			"web": "www.klinikum-niederlausitz.de",
			"mail": "",
			"lat": "51.52713",
			"lng": "14.000599999999963",
			"art": "Regionale Strokeunit"
		},
		{
			"station": "Carl-Thiem-Klinikum Cottbus gGmbH",
			"abteilung": "Klinik für Neurologie",
			"strasse": "Thiemstraße",
			"hausnr": "111",
			"plz": "03048",
			"stadt": "Cottbus",
			"tel": "0355 460",
			"fax": "",
			"web": "www.ctk.de",
			"mail": "",
			"lat": "51.74407189999999",
			"lng": "14.32481359999997",
			"art": "Regionale Strokeunit"
		},				 											
		{
			"station": "Berufsgenossenschaftliche Kliniken Bergmannstrost",
			"abteilung": "Klinik für Neurologie",
			"strasse": "Merseburger Straße",
			"hausnr": "165",
			"plz": "06112",
			"stadt": "Halle (Saale)",
			"tel": "0345 132-60",
			"fax": "",
			"web": "www.bergmannstrost.com",
			"mail": "",
			"lat": "51.4594604",
			"lng": "11.984048199999961",
			"art": "Regionale Strokeunit"
		},
		{
			"station": "Krankenhaus Martha-Maria Halle-Dölau gGmbH",
			"abteilung": "Neurologische Klinik",
			"strasse": "Röntgenstraße",
			"hausnr": "1",
			"plz": "06120",
			"stadt": "Halle (Saale)",
			"tel": "0345 559-0",
			"fax": "",
			"web": "www.martha-maria.de",
			"mail": "",
			"lat": "51.3778",
			"lng": "11.974439999999959",
			"art": "Regionale Strokeunit"
		},
		{
			"station": "UKH Universitätsklinikum Halle (Saale)",
			"abteilung": "Klinik und Poliklinik für Neurologie",
			"strasse": "Ernst-Grube-Straße",
			"hausnr": "40",
			"plz": "06120",
			"stadt": "Halle (Saale)",
			"tel": "0345 557-0",
			"fax": "",
			"web": "www.medizin.uni-halle.de ",
			"mail": "",
			"lat": "51.50135",
			"lng": "11.935439999999971",
			"art": "Überregionale Strokeunit"
		},
		{
			"station": "Charité-Universitätsmedizin Berlin, Campus Mitte (CCM)",
			"abteilung": "Klinik und Poliklinik für Neurologie",
			"strasse": "Charitéplatz",
			"hausnr": "1",
			"plz": "10117",
			"stadt": "Berlin",
			"tel": "030 450-50",
			"fax": "",
			"web": "www.charite.de",
			"mail": "",
			"lat": "52.5237633",
			"lng": "13.377897299999972",
			"art": "Überregionale Strokeunit"
		},
		{
			"station": "Vivantes Klinikum im Friedrichshain",
			"abteilung": "Klinik für Neurologie - Stroke Unit",
			"strasse": "Landsberger Allee",
			"hausnr": "49",
			"plz": "10249",
			"stadt": "Berlin",
			"tel": "030 13023-0",
			"fax": "",
			"web": "www.vivantes.de",
			"mail": "",
			"lat": "52.5253531",
			"lng": "13.437235200000032",
			"art": "Überregionale Strokeunit"
		},
		{
			"station": "Vivantes Auguste-Viktoria Klinikum",
			"abteilung": "Klinik für Neurologie - Stroke Unit",
			"strasse": "Rubensstraße",
			"hausnr": "125",
			"plz": "12157",
			"stadt": "Berlin",
			"tel": "030 13020-0",
			"fax": "",
			"web": "www.vivantes.de",
			"mail": "",
			"lat": "52.46035999999999",
			"lng": "13.34680000000003",
			"art": "Regionale Strokeunit"
		},				 	 
		{
			"station": "Charité - Universitätsmedizin Berlin Campus Benjamin Franklin",
			"abteilung": "Klinik für Neurologie und Klinische Neurophysiologie",
			"strasse": "Hindenburgdamm",
			"hausnr": "30",
			"plz": "12203",
			"stadt": "Berlin",
			"tel": "030 8445-0",
			"fax": "",
			"web": "www.charite.de",
			"mail": "",
			"lat": "52.44134099999999",
			"lng": "13.317014900000004",
			"art": "Überregionale Strokeunit"
		},
		{
			"station": "Vivantes Klinikum Neukölln",
			"abteilung": "Neurologie - Stroke Unit",
			"strasse": "Rudower Straße",
			"hausnr": "48",
			"plz": "12351",
			"stadt": "Berlin",
			"tel": "030 13014-0",
			"fax": "",
			"web": "www.vivantes.de/knk",
			"mail": "",
			"lat": "52.4326502",
			"lng": "13.444353399999954",
			"art": "Überregionale Strokeunit"
		},
		{
			"station": "DRK Kliniken Berlin | Köpenick",
			"abteilung": "Klinik für Neurologie",
			"strasse": "Salvador-Allende-Straße",
			"hausnr": "2-8",
			"plz": "12559",
			"stadt": "Berlin",
			"tel": "030 3035-3000",
			"fax": "",
			"web": "www.drk-kliniken-berlin.de",
			"mail": "",
			"lat": "52.4400937",
			"lng": "13.596712799999978",
			"art": "Regionale Strokeunit"
		},
		{
			"station": "Unfallkrankenhaus Berlin - UKB",
			"abteilung": "Klinik für Neurologie mit Stroke Unit und Frührehabilitation",
			"strasse": "Warener Straße",
			"hausnr": "7",
			"plz": "12683",
			"stadt": "Berlin",
			"tel": "030 5681-0",
			"fax": "",
			"web": "www.ukb.de",
			"mail": "",
			"lat": "",
			"lng": "",
			"art": "Regionale Strokeunit"
		},					
		{
			"station": "HELIOS Klinikum Berlin-Buch",
			"abteilung": "Klinik für Neurologie",
			"strasse": "Schwanebecker Chaussee",
			"hausnr": "50",
			"plz": "13125",
			"stadt": "Berlin",
			"tel": "030 9401-0",
			"fax": "",
			"web": "www.helios-kliniken.de",
			"mail": "",
			"lat": "52.631107",
			"lng": "13.510676399999966",
			"art": "Überregionale Strokeunit"
		},
		{
			"station": "Charité Campus Virchow-Klinikum",
			"abteilung": "Klinik für Neurologie",
			"strasse": "Augustenburger Platz",
			"hausnr": "1",
			"plz": "13353",
			"stadt": "Berlin",
			"tel": "030 45060",
			"fax": "",
			"web": "www.charite.de",
			"mail": "",
			"lat": "52.5411171",
			"lng": "13.350930400000038",
			"art": "Regionale Strokeunit"
		},
		{
			"station": "Vivantes Humboldt-Klinikum GmbH",
			"abteilung": "Neurologie - Stroke Unit",
			"strasse": "Am Nordgraben",
			"hausnr": "2",
			"plz": "13509",
			"stadt": "Berlin",
			"tel": "030 13012-0",
			"fax": "",
			"web": "www.vivantes.de/huk",
			"mail": "",
			"lat": "52.5898",
			"lng": "13.309369999999944",
			"art": "Regionale Strokeunit"
		},				
		{
			"station": "Vivantes Klinikum Spandau",
			"abteilung": "Klinik für Neurologie",
			"strasse": "Neue Bergstraße",
			"hausnr": "6",
			"plz": "13585",
			"stadt": "Berlin",
			"tel": "030 130 130",
			"fax": "",
			"web": "www.vivantes.de",
			"mail": "",
			"lat": "52.55012",
			"lng": "13.20781999999997",
			"art": "Regionale Strokeunit"
		},
		{
			"station": "Schlosspark-Klinik",
			"abteilung": "",
			"strasse": "Neue Bergstraße",
			"hausnr": "6",
			"plz": "14059",
			"stadt": "Berlin",
			"tel": "030 3264-0",
			"fax": "",
			"web": "www.schlosspark-klinik.de",
			"mail": "",
			"lat": "52.55012",
			"lng": "13.20781999999997",
			"art": "Regionale Strokeunit"
		},	
		{
			"station": "St. Josefs-Krankenhaus Potsdam-Sanssouci",
			"abteilung": "Klinik für Neurologie",
			"strasse": "Allee nach Sanssouci",
			"hausnr": "7",
			"plz": "14471",
			"stadt": "Potsdam",
			"tel": "0331 9682-0",
			"fax": "",
			"web": "www.alexianer.de",
			"mail": "",
			"lat": "52.3996716",
			"lng": "13.044173199999932",
			"art": "Regionale Strokeunit"
		},
		{
			"station": "Asklepios Fachkliniken Brandenburg GmbH",
			"abteilung": "Klinik für Neurologie",
			"strasse": "Anton-Saefkow-Allee",
			"hausnr": "2",
			"plz": "14772",
			"stadt": "Brandenburg an der Havel",
			"tel": "03381 78-0",
			"fax": "",
			"web": "www.asklepios.com",
			"mail": "",
			"lat": "52.4287377",
			"lng": "12.497604899999942",
			"art": "Überregionale Strokeunit"
		},							
		{
			"station": "Klinikum Frankfurt (Oder) GmbH",
			"abteilung": "Klinik für Neurologie",
			"strasse": "Müllroser Chaussee",
			"hausnr": "7",
			"plz": "15236",
			"stadt": "Frankfurt (Oder)",
			"tel": "0335 548-0",
			"fax": "",
			"web": "www.rhoen-klinikum-ag.com",
			"mail": "",
			"lat": "52.30076",
			"lng": "14.481629999999996",
			"art": "Überregionale Strokeunit"
		}, 							
		{
			"station": "Immanuel Klinik Rüdersdorf",
			"abteilung": "Abteilung für Neurologie",
			"strasse": "Seebad",
			"hausnr": "82/83",
			"plz": "15562",
			"stadt": "Rüdersdorf",
			"tel": "033638 83-0",
			"fax": "",
			"web": "www.ruedersdorf.immanuel.de/abteilungen/neurologie/home.html",
			"mail": "",
			"lat": "52.45476",
			"lng": "13.773680000000013",
			"art": "Überregionale Strokeunit"
		},					 	
		{
			"station": "Asklepios Fachklinikum Teupitz",
			"abteilung": "Klinik für Neurologie und Neurophysiologie",
			"strasse": "Buchholzer Straße",
			"hausnr": "21",
			"plz": "15755",
			"stadt": "Teupitz",
			"tel": "033766 66-0",
			"fax": "",
			"web": "www.asklepios.com",
			"mail": "",
			"lat": "52.13231",
			"lng": "13.616629999999986",
			"art": "Überregionale Strokeunit"
		},				 	
		{
			"station": "Martin Gropus Krankenhaus GmbH",
			"abteilung": "Neurologische Klinik",
			"strasse": "Oderberger Straße",
			"hausnr": "8",
			"plz": "16225",
			"stadt": "Eberswalde",
			"tel": "03334 53-0",
			"fax": "",
			"web": "www.glg-mbh.de",
			"mail": "",
			"lat": "52.84459,",
			"lng": "13.82501000000002",
			"art": "Überregionale Strokeunit"
		},
		{
			"station": "Oberhavel Kliniken GmbH - Klinik Henningsdorf",
			"abteilung": "Neurologie",
			"strasse": "Marwitzer Straße",
			"hausnr": "91",
			"plz": "16761",
			"stadt": "Henningsdorf",
			"tel": "03302 545-0",
			"fax": "",
			"web": "www.oberhavel-kliniken.de",
			"mail": "",
			"lat": "52.65542",
			"lng": "13.189499999999953",
			"art": "Regionale Strokeunit"
		},								
		{
			"station": "Dietrich-Bonhoeffer-Klinikum Neubrandenburg",
			"abteilung": "Klinik für Neurologie",
			"strasse": "Salvator-Allende-Straße",
			"hausnr": "30",
			"plz": "17036",
			"stadt": "Neubrandenburg",
			"tel": "0395 775-0",
			"fax": "",
			"web": "www.dbknb.de",
			"mail": "",
			"lat": "53.5447819",
			"lng": "13.294183900000007",
			"art": "Überregionale Strokeunit"
		},						 	
		{
			"station": "AMEOS Klinikum Ueckermünde",
			"abteilung": "Klinik für Neurologie",
			"strasse": "Ravensteinstraße",
			"hausnr": "23",
			"plz": "17373",
			"stadt": "Ueckermünde",
			"tel": "039771 41-0",
			"fax": "",
			"web": "www.ameos.eu",
			"mail": "",
			"lat": "53.7399059",
			"lng": "14.022683599999937",
			"art": "Regionale Strokeunit"
		},			
		{
			"station": "Universitätsklinikum Greifswald",
			"abteilung": "Klinik und Poliklinik für Neurologie",
			"strasse": "Ferdinand-Sauerbruch-Straße",
			"hausnr": "1",
			"plz": "17489",
			"stadt": "Greifswald",
			"tel": "03834 86-0",
			"fax": "",
			"web": "www.klinikum.uni-greifswald.de",
			"mail": "",
			"lat": "54.0871243",
			"lng": "13.407565900000009",
			"art": "Überregionale Strokeunit"
		},				 				 	 
		{
			"station": "Universitätsklinikum Rostock AöR",
			"abteilung": "Klinik und Poliklinik für Neurologie",
			"strasse": "Gehlsheimer Straße",
			"hausnr": "20",
			"plz": "18147",
			"stadt": "Rostock",
			"tel": "0381 494-0",
			"fax": "",
			"web": "www.med.uni-rostock.de",
			"mail": "",
			"lat": "54.10257",
			"lng": "12.131430000000023",
			"art": "Überregionale Strokeunit"
		},
		{
			"station": "KMG Klinikum Güstrow GmbH",
			"abteilung": "Klinik für Neurologie",
			"strasse": "Friedrich-Trendelenburg-Allee",
			"hausnr": "1",
			"plz": "18273",
			"stadt": "Güstrow",
			"tel": "03843 3-40",
			"fax": "",
			"web": "www.kmg-kliniken.de",
			"mail": "",
			"lat": "53.8110325",
			"lng": "12.200421499999948",
			"art": "Regionale Strokeunit"
		},
		{
			"station": "HELIOS Hanseklinikum Stralsund GmbH",
			"abteilung": "Neurologische Klinik",
			"strasse": "Große Parower Straße",
			"hausnr": "47-53",
			"plz": "18435 ",
			"stadt": "Stralsund",
			"tel": "03831 35-0",
			"fax": "",
			"web": "www.helios-kliniken.de ",
			"mail": "",
			"lat": "54.32895",
			"lng": "13.080760000000055",
			"art": "Regionale Strokeunit"
		},
		{
			"station": "MediClin Krankenhaus Plau am See",
			"abteilung": "Neurologie und Stroke Unit",
			"strasse": "Quetziner Straße",
			"hausnr": "88",
			"plz": "19395",
			"stadt": "Plau am See",
			"tel": "038735 87-0",
			"fax": "",
			"web": "www.mediclin.de",
			"mail": "",
			"lat": "53.4706829",
			"lng": "12.27854149999996",
			"art": "Überregionale Strokeunit"
		},
		{
			"station": "Asklepios Klinik St. Georg",
			"abteilung": "Neurologische Abteilung",
			"strasse": "Lohmühlenstraße",
			"hausnr": "5",
			"plz": "20099",
			"stadt": "Hamburg",
			"tel": "040 1818-850",
			"fax": "",
			"web": "www.asklepios.com/sanktgeorg",
			"mail": "",
			"lat": "53.55840629999999",
			"lng": "10.01834210000004",
			"art": "regionales Strokeunit"
		},
		{
			"station": "Universitätsklinikum Hamburg-Eppendorf",
			"abteilung": "Klinik und Poliklinik für Neurologie",
			"strasse": "Martinistraße",
			"hausnr": "52",
			"plz": "20246",
			"stadt": "Hamburg",
			"tel": "040 7410-0",
			"fax": "",
			"web": "www.uke.de",
			"mail": "",
			"lat": "53.590047",
			"lng": "9.97858999999994",
			"art": "Überregionale Strokeunit"
		},
		{
			"station": "Asklepios Klinik Harburg",
			"abteilung": "Neurologische Abteilung",
			"strasse": "Eißendorfer Pferdeweg",
			"hausnr": "52",
			"plz": "21075 ",
			"stadt": "Hamburg",
			"tel": "040 1818-860",
			"fax": "",
			"web": "www.asklepios.com/Harburg",
			"mail": "",
			"lat": "53.46111",
			"lng": "9.950129999999945",
			"art": "Regionale Strokeunit"
		},
		{
			"station": "Krankenhäuser Buchholz und Winsen gGmbH",
			"abteilung": "Abteilung für Neurologie",
			"strasse": "Steinbecker Straße",
			"hausnr": "44",
			"plz": "21244",
			"stadt": "Buchholz",
			"tel": "04181 13-0",
			"fax": "",
			"web": "www.krankenhaus-buchholz.de",
			"mail": "",
			"lat": "53.3336164",
			"lng": "9.873657999999978",
			"art": "Regionale Strokeunit"
		},
		{
			"station": "Städtisches Klinikum Lüneburg gGmbH",
			"abteilung": "Neurologische Klinik",
			"strasse": "Bögelstraße",
			"hausnr": "1",
			"plz": "21339",
			"stadt": "Lüneburg",
			"tel": "04131 77-0",
			"fax": "",
			"web": "www.klinikum-lueneburg.de",
			"mail": "",
			"lat": "53.240400",
			"lng": "10.395491",
			"art": "Überregionale Strokeunit"
		},
		{
			"station": "Elbe Kliniken Stade-Buxtehude gGmbH",
			"abteilung": "Klinik für Neurologie",
			"strasse": "Bremervörder Straße",
			"hausnr": "111",
			"plz": "21682",
			"stadt": "Stade",
			"tel": "04141 97-0",
			"fax": "",
			"web": "www.elbe-kliniken.de",
			"mail": "",
			"lat": "53.59571",
			"lng": "9.443340000000035",
			"art": "Regionale Strokeunit"
		},
		{
			"station": "Asklepios Klinik Wandsbek",
			"abteilung": "Neurologische Abteilung",
			"strasse": "Alphonsstraße",
			"hausnr": "14",
			"plz": "22043",
			"stadt": "Hamburg",
			"tel": "040 1818-830",
			"fax": "",
			"web": "www.asklepios.com",
			"mail": "",
			"lat": "53.5704321",
			"lng": "10.09044629999994",
			"art": "Regionale Strokeunit"
		},
		{
			"station": "Kath. Marienkrankenhaus Hamburg gGmbH",
			"abteilung": "Neurologische Klinik",
			"strasse": "Alfredstraße",
			"hausnr": "9",
			"plz": "22087",
			"stadt": "Hamburg",
			"tel": "040 2546-0",
			"fax": "",
			"web": "www.marienkrankenhaus.org",
			"mail": "",
			"lat": "53.5576985",
			"lng": "10.032223499999986",
			"art": "Regionale Strokeunit"
		},
		{
			"station": "Asklepios Klinik Barmbek",
			"abteilung": "Neurologie",
			"strasse": "Rübenkamp",
			"hausnr": "220",
			"plz": "22291 ",
			"stadt": "Hamburg",
			"tel": "040 1818-820",
			"fax": "",
			"web": "www.asklepios.com/barmbek",
			"mail": "",
			"lat": "53.60726",
			"lng": "10.034539999999993",
			"art": "Überregionale Strokeunit"
		},
		{
			"station": "Asklepios Klinik Nord - Heidberg",
			"abteilung": "Abteilung für Neurologie",
			"strasse": "Tangstedter Landstraße",
			"hausnr": "400",
			"plz": "22417",
			"stadt": "Hamburg",
			"tel": "040 1818-870",
			"fax": "",
			"web": "www.asklepios.com",
			"mail": "",
			"lat": "53.6717319",
			"lng": "10.032058399999983",
			"art": "Überregionale Strokeunit"
		},
		{
			"station": "Albertinen-Krankenhaus",
			"abteilung": "Klinik für Neurologie",
			"strasse": "Süntelstraße",
			"hausnr": "11a",
			"plz": "22457",
			"stadt": "Hamburg",
			"tel": "040 5588-1",
			"fax": "",
			"web": "www.albertinen.de",
			"mail": "",
			"lat": "53.6319416",
			"lng": "9.905439999999999",
			"art": "Regionale Strokeunit"
		},
		{
			"station": "Asklepios Klinik Altona",
			"abteilung": "Neurologie",
			"strasse": "Paul-Ehrlich-Straße",
			"hausnr": "1",
			"plz": "22763",
			"stadt": "Hamburg",
			"tel": "040 1818-810",
			"fax": "",
			"web": "www.asklepios.com",
			"mail": "",
			"lat": "53.55412",
			"lng": "9.90264000000002",
			"art": "Überregionale Strokeunit"
		},
		{
			"station": "Universitätsklinikum Schleswig-Holstein, Campus Lübeck",
			"abteilung": "Klinik für Neurologie",
			"strasse": "Ratzeburger Allee",
			"hausnr": "160",
			"plz": "23562",
			"stadt": "Lübeck",
			"tel": "0451 500-2926",
			"fax": "",
			"web": "www.neuro.mu-luebeck.de",
			"mail": "",
			"lat": "53.833394",
			"lng": "10.703527",
			"art": "Überregionale Strokeunit"
		},
		{
			"station": "Schön Klinik Neustadt",
			"abteilung": "Klinik für Neurologie und Klinische Neurophysiologie",
			"strasse": "Am Kiebitzberg",
			"hausnr": "10",
			"plz": "23730",
			"stadt": "Neustadt in Holstein",
			"tel": "04561 54-0",
			"fax": "",
			"web": "www.schoen-kliniken.de/ptp/kkh/neu/faz/neurologie/",
			"mail": "",
			"lat": "54.09088",
			"lng": "10.829160000000002",
			"art": "Regionale Strokeunit"
		},
		{
			"station": "Segeberger Kliniken GmbH",
			"abteilung": "Allgemeine Klinik",
			"strasse": "Krankenhausstraße",
			"hausnr": "2",
			"plz": "23795",
			"stadt": "Bad Segeberg",
			"tel": "04551 802-9998",
			"fax": "",
			"web": "www.segebergerkliniken.de",
			"mail": "",
			"lat": "53.94144000000001",
			"lng": "10.30932000000007",
			"art": "Regionale Strokeunit"
		},
		{
			"station": "Universitätsklinikum Schleswig-Holstein - Campus Kiel",
			"abteilung": "Klinik für Neurologie",
			"strasse": "Arnold-Heller-Straße",
			"hausnr": "3",
			"plz": "24105",
			"stadt": "Kiel",
			"tel": "0431 597-0",
			"fax": "",
			"web": "www.neurologie-kiel.uk-sh.de",
			"mail": "",
			"lat": "54.32954160000001",
			"lng": "10.139763300000027",
			"art": "Überregionale Strokeunit"
		},
		{
			"station": "FEK-Friedrich-Ebert-Krankenhaus Neumünster GmbH",
			"abteilung": "Klinik für Neurologie und Psychiatrie",
			"strasse": "Friesenstraße 11",
			"hausnr": "",
			"plz": "24534",
			"stadt": "Neumünster",
			"tel": "04321 405-4141",
			"fax": "",
			"web": "www.friedrich-ebert-krankenhaus.de",
			"mail": "",
			"lat": "54.0718437",
			"lng": "9.983364100000017",
			"art": "Regionale Strokeunit"
		},
		{
			"station": "imland Klinik Rendsburg",
			"abteilung": "Klinik für Neurologie",
			"strasse": "Lilienstraße",
			"hausnr": "20-28",
			"plz": "24768",
			"stadt": "Rendsburg",
			"tel": "04331 200 0",
			"fax": "",
			"web": "www.imland.de",
			"mail": "",
			"lat": "54.29761000000001",
			"lng": "9.658999999999992",
			"art": "Regionale Strokeunit"
		},
		{
			"station": "SCHLEI-Klinikum Schleswig MLK GmbH",
			"abteilung": "Klinik für Neurologie",
			"strasse": "Lutherstraße",
			"hausnr": "22",
			"plz": "24837",
			"stadt": "Schleswig",
			"tel": "04621 812-0",
			"fax": "",
			"web": "www.schlei-klinikum-schleswig-mlk.de",
			"mail": "",
			"lat": "54.51782",
			"lng": "9.558629999999994",
			"art": "Regionale Strokeunit"
		},
		{
			"station": "Diakonissenkrankenhaus Flensburg",
			"abteilung": "Neurologische Klinik",
			"strasse": "Knuthstraße",
			"hausnr": "1",
			"plz": "24939",
			"stadt": "Flensburg",
			"tel": "0461 812-0",
			"fax": "",
			"web": "www.diako.de",
			"mail": "",
			"lat": "54.79040999999999",
			"lng": "9.426050000000032",
			"art": "Überregionale Strokeunit"
		},
		{
			"station": "Regio Kliniken GmbH, Klinikum Pinneberg",
			"abteilung": "Klinik für Neurologie",
			"strasse": "Fahltskamp",
			"hausnr": "74",
			"plz": "25421",
			"stadt": "Pinneberg",
			"tel": "04101 217-0",
			"fax": "",
			"web": "www.klinikum-pinneberg.de",
			"mail": "",
			"lat": "53.6547239,",
			"lng": "9.811184099999991",
			"art": "Regionale Strokeunit"
		},
		{
			"station": "Klinikum Itzehoe",
			"abteilung": "Klinik für Neurologie",
			"strasse": "Robert-Koch-Straße",
			"hausnr": "2",
			"plz": "25524",
			"stadt": "Itzehoe",
			"tel": "04821 772-0",
			"fax": "",
			"web": "www.kh-itzehoe.de/deutsch/UnsereKliniken/KlinikfrNeurologie/page.html",
			"mail": "",
			"lat": "53.9409074",
			"lng": "9.501968300000044",
			"art": "Regionale Strokeunit"
		},
		{
			"station": "Evangelisches Krankenhaus Oldenburg",
			"abteilung": "Neurologische Klinik",
			"strasse": "Steinweg",
			"hausnr": "13-17",
			"plz": "26122",
			"stadt": "Oldenburg",
			"tel": "0441 236-0",
			"fax": "",
			"web": "www.evangelischeskrankenhaus.de",
			"mail": "",
			"lat": "53.1422493",
			"lng": "8.20534079999993",
			"art": "Regionale Strokeunit"
		},
		{
			"station": "Nordwest-Krankenhaus Sanderbusch GmbH",
			"abteilung": "Neurologische Klinik",
			"strasse": "Hauptstr",
			"hausnr": "1",
			"plz": "26452",
			"stadt": "Sande",
			"tel": "04422 80-0",
			"fax": "",
			"web": "www.sanderbusch.de",
			"mail": "",
			"lat": "53.4961563",
			"lng": "8.023892400000022",
			"art": "Regionale Strokeunit"
		},
		{
			"station": "Ammerland-Klinik GmbH",
			"abteilung": "Klinik für Neurologie",
			"strasse": "Lange Straße",
			"hausnr": "38",
			"plz": "26655",
			"stadt": "Westerstede",
			"tel": "04488 50-0",
			"fax": "",
			"web": "www.ammerland-klinik.de",
			"mail": "",
			"lat": "53.25683000000001",
			"lng": "7.917720000000031",
			"art": "Regionale Strokeunit"
		},
		{
			"station": "Klinikum Emden, Hans-Susemihl-Krankenhaus gGmbH",
			"abteilung": "Neurologische Klinik",
			"strasse": "Bolardusstraße",
			"hausnr": "20",
			"plz": "26721",
			"stadt": "Emden",
			"tel": "04921 98-0",
			"fax": "",
			"web": "www.klinikum-emden.de",
			"mail": "",
			"lat": "53.37391",
			"lng": "7.21365000000003",
			"art": "Regionale Strokeunit"
		},
		{
			"station": "Allgemeines Krankenhaus Celle",
			"abteilung": "Neurologische Klinik",
			"strasse": "Siemensplatz",
			"hausnr": "4",
			"plz": "29223",
			"stadt": "Celle",
			"tel": "05141 72-0",
			"fax": "",
			"web": "www.akh-celle.de",
			"mail": "",
			"lat": "52.62879539999999",
			"lng": "10.085582700000032",
			"art": "Überregionale Strokeunit"
		},
		{
			"station": "Klinikum Uelzen GmbH",
			"abteilung": "Abteilung für Neurologie",
			"strasse": "Hagenskamp",
			"hausnr": "34",
			"plz": "29525",
			"stadt": "Uelzen",
			"tel": "0581 83-0",
			"fax": "",
			"web": "www.klinikum-uelzen.de",
			"mail": "",
			"lat": "52.97182",
			"lng": "10.532190000000014",
			"art": "Regionale Strokeunit"
		},
		{
			"station": "Klinikum Region Hannover GmbH, Klinikum Nordstadt",
			"abteilung": "Klinik für Neurologie",
			"strasse": "Haltenhoffstraße",
			"hausnr": "41",
			"plz": "30167",
			"stadt": "Hannover",
			"tel": "0511 970-0",
			"fax": "",
			"web": "www.krh.eu",
			"mail": "",
			"lat": "52.3917285",
			"lng": "9.713587599999983",
			"art": "Überregionale Strokeunit"
		},
		{
			"station": "Diakoniekrankenhaus Friederikenstift gGmbH",
			"abteilung": "Neurologische Klinik",
			"strasse": "Humboldtstraße",
			"hausnr": "5",
			"plz": "30169",
			"stadt": "Hannover",
			"tel": "0511 129-2829",
			"fax": "",
			"web": "www.friederikenstift.de",
			"mail": "",
			"lat": "52.37132",
			"lng": "9.724500000000035",
			"art": "Regionale Strokeunit"
		},
		{
			"station": "Diakoniekrankenhaus Henriettenstiftung gGmbH",
			"abteilung": "Klinik für Neurologie und klinische Neurophysiologie",
			"strasse": "Marienstraße",
			"hausnr": "72-90",
			"plz": "30171",
			"stadt": "Hannover",
			"tel": "0511 289-0",
			"fax": "",
			"web": "www.diakoniekrankenhaus-henriettenstiftung.de",
			"mail": "",
			"lat": "52.369888",
			"lng": "9.753843999999958",
			"art": "Regionale Strokeunit"
		},
		{
			"station": "Medizinische Hochschule Hannover",
			"abteilung": "Neurologische Klinik",
			"strasse": "Carl-Neuberg-Straße",
			"hausnr": "1",
			"plz": "30625",
			"stadt": "Hannover",
			"tel": "0511 532-0",
			"fax": "",
			"web": "www.mh-hannover.de",
			"mail": "",
			"lat": "52.3842735",
			"lng": "9.806300999999962",
			"art": "Überregionale Strokeunit"
		},
		{
			"station": "KRH Klinikum Agnes Karll Laatzen",
			"abteilung": "Neurologische Klinik",
			"strasse": "Hildesheimer Straße ",
			"hausnr": "158",
			"plz": "30880",
			"stadt": "Laatzen",
			"tel": "0511 8208-0",
			"fax": "",
			"web": "www.krh.eu",
			"mail": "",
			"lat": "52.30748",
			"lng": "9.798790000000054",
			"art": "Regionale Strokeunit"
		},
		{
			"station": "St. Bernward Krankenhaus",
			"abteilung": "Klinik für Neurologie und Klinische Neurophysiologie",
			"strasse": "Treibestraße",
			"hausnr": "9",
			"plz": "31134",
			"stadt": "Hildesheim",
			"tel": "05121 90-0",
			"fax": "",
			"web": "www.bernward-khs.de",
			"mail": "",
			"lat": "52.145999",
			"lng": "9.947348000000034",
			"art": "Überregionale Strokeunit"
		},
		{
			"station": "BDH-Klinik Hessisch Oldendorf",
			"abteilung": "Neurologisches Zentrum mit Akutversorgung, Stroke Unit und phasenübergreifender Rehabilitation",
			"strasse": "Greitstraße",
			"hausnr": "18-28",
			"plz": "31840",
			"stadt": "Hessisch-Oldendorf",
			"tel": "05152 781-0",
			"fax": "",
			"web": "www.nkho.de",
			"mail": "",
			"lat": "52.17372",
			"lng": "9.248389999999972",
			"art": "Regionale Strokeunit"
		},
		{
			"station": "Universitätsmedizin Göttingen, Georg-August-Universität",
			"abteilung": "Zentrum Neurologische Medizin",
			"strasse": "Robert-Koch-Straße",
			"hausnr": "40",
			"plz": "37075",
			"stadt": "Göttingen",
			"tel": "0551 39-0",
			"fax": "",
			"web": "ww.klinikum-goettingen.de",
			"mail": "",
			"lat": "51.5510488",
			"lng": "9.942797799999994",
			"art": "Überregionale Strokeunit"
		},
		{
			"station": "Städtisches Klinikum Braunschweig gGmbH",
			"abteilung": "Neurologische Klinik",
			"strasse": "Salzdahlumer Straße",
			"hausnr": "90",
			"plz": "38126",
			"stadt": "Braunschweig",
			"tel": "0531 595-0",
			"fax": "",
			"web": "www.klinikum-braunschweig.de",
			"mail": "",
			"lat": "52.23734",
			"lng": "10.544970000000035",
			"art": "Überregionale Strokeunit"
		},
		{
			"station": "ASKLEPIOS Kliniken Schildautal",
			"abteilung": "Klinik für Neurologie",
			"strasse": "Karl-Herold-Straße",
			"hausnr": "1",
			"plz": "38723",
			"stadt": "Seesen",
			"tel": "05381 74-0",
			"fax": "",
			"web": "www.asklepios.com",
			"mail": "",
			"lat": "51.8832",
			"lng": "10.21690000000001",
			"art": "Überregionale Strokeunit"
		},
		{
			"station": "Harz-Klinikum Wernigerode-Blankenburg GmbH",
			"abteilung": "Neurologische Klinik",
			"strasse": "Ilsenburger Straße",
			"hausnr": "15",
			"plz": "38855",
			"stadt": "Wernigerode",
			"tel": "03943 61-0",
			"fax": "",
			"web": "www.harz-klinikum.de",
			"mail": "",
			"lat": "51.83571999999999",
			"lng": "10.776759999999967",
			"art": "Regionale Strokeunit"
		},
		{
			"station": "Universitätsklinikum Magdeburg",
			"abteilung": "Klinik für Neurologie",
			"strasse": "Leipziger Straße",
			"hausnr": "44",
			"plz": "39120",
			"stadt": "Magdeburg",
			"tel": "0391 67-01",
			"fax": "",
			"web": "www.med.uni-magdeburg.de/Kliniken/Neurologie",
			"mail": "",
			"lat": "52.0584301",
			"lng": "11.613268800000014",
			"art": "Überregionale Strokeunit"
		},
		{
			"station": "Klinikum Osnabrück GmbH",
			"abteilung": "Klinik für Neurologie",
			"strasse": "Am Finkenhügel",
			"hausnr": "1",
			"plz": "49076",
			"stadt": "Osnabrück",
			"tel": "0541 405-0",
			"fax": "",
			"web": "www.klinikum-osnabrueck.info",
			"mail": "",
			"lat": "52.27686",
			"lng": "8.002479999999991",
			"art": "Überregionale Strokeunit"
		},
		{
			"station": "Krankenhaus St. Elisabeth gGmbH",
			"abteilung": "Neurologie",
			"strasse": "Lindenstraße",
			"hausnr": "3-7",
			"plz": "49401",
			"stadt": "Damme",
			"tel": "05491 6 01",
			"fax": "",
			"web": "www.krankenhaus-damme.de",
			"mail": "",
			"lat": "52.52164",
			"lng": "8.194529999999986",
			"art": "Regionale Strokeunit"
		},
		{
			"station": "Christliches Krankenhaus Quakenbrück gGmbH",
			"abteilung": "Neurologie",
			"strasse": "Danziger Straße",
			"hausnr": "2",
			"plz": "49610",
			"stadt": "Quakenbrück",
			"tel": "05431 15-0",
			"fax": "",
			"web": "www.ckq-gmbh.de",
			"mail": "",
			"lat": "52.66811999999999",
			"lng": "7.938440000000014",
			"art": "Regionale Strokeunit"
		}
]
